id;name;lat;lon;category;subcategory;wheelchair;source
osm:node_227010766;Eni;45.618915;9.282171;amenity;fuel;;osm_node
osm:node_261675940;Scuola Agraria del Parco di Monza;45.6008122;9.2723318;amenity;school;;osm_node
osm:node_346163428;Biblioteca Monza - Triante;45.5831674;9.2553114;amenity;library;;osm_node
osm:node_346187235;Monza 6;45.5684917;9.2416796;amenity;post_office;;osm_node
osm:node_346339847;Monza Centro Via Gramsci;45.5817617;9.2710485;amenity;parking;limited;osm_node
osm:node_346350532;Biblioteca Civica - Monza;45.5838734;9.2724811;amenity;library;;osm_node
osm:node_346350998;Liceo Classico Bartolomeo Zucchi;45.5836418;9.2727905;amenity;school;;osm_node
osm:node_370421722;Borgo Bergamo Parking;45.584812;9.2848575;amenity;parking;;osm_node
osm:node_455980205;McDonald's;45.5720221;9.2475957;amenity;fast_food;yes;osm_node
osm:node_455980207;Capitol;45.5866863;9.2744607;amenity;cinema;;osm_node
osm:node_552865217;Farmacia Cederna;45.5799797;9.2971707;amenity;pharmacy;;osm_node
osm:node_552865229;Farmacia Comunale n° 6;45.5794855;9.3027766;amenity;pharmacy;;osm_node
osm:node_553075448;Parafarmacia Tutto Salute;45.5707985;9.2841577;amenity;pharmacy;;osm_node
osm:node_553075453;Farmacia Basaglia;45.5743064;9.2827778;amenity;pharmacy;;osm_node
osm:node_554601719;Farmacia Americana;45.5778881;9.282494;amenity;pharmacy;yes;osm_node
osm:node_560696734;Parcheggio di Piazza Trento e Trieste;45.5829537;9.272952;amenity;parking;;osm_node
osm:node_610505816;Farmacia Comunale n. 1;45.5708907;9.2447598;amenity;pharmacy;;osm_node
osm:node_632830368;Teatro Villoresi;45.5869186;9.2766557;amenity;theatre;;osm_node
osm:node_855900412;Bici;45.5732457;9.3076799;amenity;bicycle_parking;;osm_node
osm:node_869673248;FCC - Cancelleria all'ingrosso;45.5632804;9.2893419;shop;stationery;;osm_node
osm:node_1603484637;Banca Intesa San Paolo;45.5794845;9.3002571;amenity;bank;;osm_node
osm:node_1694988360;Bar le Monelle;45.6001505;9.2575481;amenity;cafe;;osm_node
osm:node_1694988363;Tre tempi;45.5982322;9.2558641;amenity;restaurant;;osm_node
osm:node_1694988367;Blanc Bakery Pizza Food & Wine Bar;45.6000098;9.2594088;amenity;restaurant;;osm_node
osm:node_1695387293;Giardini di Auchan;45.5900646;9.2503561;tourism;information;;osm_node
osm:node_1700722632;Carrozzeria Lari;45.5973406;9.2556595;shop;car_repair;;osm_node
osm:node_1700723053;Monumento agli Alpini;45.5957238;9.2542741;historic;memorial;;osm_node
osm:node_1701772601;Fabbro De Luise;45.5865829;9.242902;craft;metal_construction;;osm_node
osm:node_1907924208;Intesa San Paolo;45.6010849;9.2589213;amenity;bank;;osm_node
osm:node_1979774216;Pittarello;45.5722703;9.2474182;shop;shoes;;osm_node
osm:node_2017312519;Parcheggio Esselunga;45.569847;9.246328;amenity;parking;;osm_node
osm:node_2031543093;Esselunga;45.5785678;9.2829493;amenity;parking_entrance;;osm_node
osm:node_2066375608;Credito Artigiano;45.5905677;9.3021521;amenity;bank;;osm_node
osm:node_2098656817;MoBLUG;45.5819338;9.2951995;leisure;club;;osm_node
osm:node_2164376906;Monumento a Mosè Bianchi;45.5863582;9.2754115;tourism;artwork;;osm_node
osm:node_2245405325;Farmacia Rondò;45.5899542;9.2488425;amenity;pharmacy;;osm_node
osm:node_2257692654;TiK Tak;45.5794393;9.2595643;amenity;bar;;osm_node
osm:node_2311466493;Punto Enel;45.5825319;9.3117267;office;energy_supplier;;osm_node
osm:node_2317700789;Osteria del Cavolo;45.5829339;9.2764686;amenity;restaurant;;osm_node
osm:node_2317700790;Nikky;45.5829542;9.2766781;amenity;restaurant;;osm_node
osm:node_2344578315;Uhaz;45.5781283;9.2721977;amenity;cafe;;osm_node
osm:node_2344578318;La Stazione del Caffè;45.5777517;9.2728058;amenity;cafe;yes;osm_node
osm:node_2344578465;Panificio Crivelli;45.5838385;9.2791309;shop;bakery;limited;osm_node
osm:node_2344594321;Flor Shop Monza;45.5883791;9.2851607;shop;florist;;osm_node
osm:node_2344594372;La Voliera per Umani;45.5962241;9.2830913;tourism;artwork;;osm_node
osm:node_2344609635;Centro Ippico S. Maria;45.6050832;9.2837752;leisure;horse_riding;;osm_node
osm:node_2344609647;Lo Scrittore;45.6051975;9.2872528;tourism;artwork;limited;osm_node
osm:node_2358901485;Monumento ai Caduti del Lavoro;45.5781788;9.272489;historic;memorial;;osm_node
osm:node_2358901666;Largo IV Novembre;45.58427;9.2741611;amenity;parking;;osm_node
osm:node_2358901667;Teodolinda;45.5828831;9.2741617;amenity;cafe;;osm_node
osm:node_2358901670;Niena;45.5853811;9.2740358;amenity;restaurant;;osm_node
osm:node_2358901671;Trattoria Caprese;45.5848798;9.2746925;amenity;restaurant;yes;osm_node
osm:node_2358901714;Dentix;45.5843058;9.2774698;amenity;dentist;;osm_node
osm:node_2358901719;UBI Banca Popolare di Bergamo;45.5823314;9.2781237;amenity;bank;;osm_node
osm:node_2358901792;Lenry;45.5830242;9.2767801;amenity;cafe;;osm_node
osm:node_2358901795;L'arte del grano;45.5831106;9.2769087;shop;bakery;;osm_node
osm:node_2358901803;Monumento a Giuseppe Garibaldi;45.5849154;9.277626;historic;memorial;;osm_node
osm:node_2358901843;Caffè Sport;45.5851877;9.2782265;amenity;cafe;;osm_node
osm:node_2358901876;Bar del Centro;45.5829581;9.2732058;amenity;cafe;limited;osm_node
osm:node_2358901880;Luna Cafè;45.5833438;9.2742323;amenity;cafe;;osm_node
osm:node_2358901884;United Colors of Benetton;45.5842838;9.2757014;shop;clothes;;osm_node
osm:node_2358901893;Monza 2;45.5820221;9.2751646;amenity;post_office;;osm_node
osm:node_2358901897;Zara;45.5837468;9.2743421;shop;clothes;yes;osm_node
osm:node_2358901901;Farmacia Duse;45.5847934;9.2750068;amenity;pharmacy;no;osm_node
osm:node_2358901903;Moderno;45.5845415;9.2753715;amenity;cafe;;osm_node
osm:node_2358901906;Stroili Oro;45.5844417;9.2755051;shop;jewelry;no;osm_node
osm:node_2358901908;mistertea;45.5839045;9.2773508;amenity;cafe;;osm_node
osm:node_2358901912;Caffè della Signora;45.5822157;9.2804432;amenity;cafe;;osm_node
osm:node_2358901914;Sephora;45.5811121;9.273505;shop;cosmetics;;osm_node
osm:node_2358901916;G di Giochi;45.5792266;9.2727269;shop;toys;;osm_node
osm:node_2358977344;Turnè;45.583921;9.2825177;amenity;bar;;osm_node
osm:node_2359052100;La fioraia;45.585239;9.2757941;shop;florist;;osm_node
osm:node_2359092344;Paesaggi Altrove;45.5813098;9.2764613;shop;travel_agency;;osm_node
osm:node_2359092425;Foot Locker;45.5842977;9.2754804;shop;shoes;;osm_node
osm:node_2359092428;San Michele Arcangelo;45.5850373;9.274097;historic;memorial;;osm_node
osm:node_2359092433;Dori;45.5850883;9.2743487;shop;bakery;;osm_node
osm:node_2359092436;Caffè San Paolo;45.584988;9.2743389;amenity;cafe;;osm_node
osm:node_2359092487;Fideuram;45.585086;9.2739416;amenity;bank;;osm_node
osm:node_2359207160;Wibe;45.5827024;9.2768448;amenity;bar;;osm_node
osm:node_2359207161;Liquors;45.5828392;9.2766135;amenity;bar;;osm_node
osm:node_2359207173;Uova e Farina;45.5843526;9.2805151;shop;deli;;osm_node
osm:node_2359207174;L'Arco del Re;45.5838842;9.2795354;shop;deli;;osm_node
osm:node_2359207263;Le Cucine di Via Zucchi;45.5860292;9.2746842;amenity;restaurant;;osm_node
osm:node_2359207264;Le Delizie di Via Zucchi;45.5859128;9.2745934;shop;bakery;no;osm_node
osm:node_2359207304;Farmacia Garibaldi;45.5844612;9.2771025;amenity;pharmacy;;osm_node
osm:node_2359207305;Farmacia Robbiati;45.5840527;9.2793193;amenity;pharmacy;;osm_node
osm:node_2359245823;Banco BPM;45.584724;9.2742846;amenity;bank;;osm_node
osm:node_2359245880;Schooner Viaggi;45.5839305;9.2783261;shop;travel_agency;limited;osm_node
osm:node_2359245885;Libraccio;45.5840424;9.2786224;shop;books;;osm_node
osm:node_2362260007;Farmacia Dr.Max Monza Corso Milano;45.577355;9.2714635;amenity;pharmacy;;osm_node
osm:node_2362260097;Farmacia del Corso;45.5796365;9.2726404;amenity;pharmacy;;osm_node
osm:node_2362260107;Bar Milano;45.5791247;9.2726466;amenity;cafe;;osm_node
osm:node_2362260113;Bar Riccardo;45.5804191;9.2730936;amenity;cafe;;osm_node
osm:node_2362260117;Alcott;45.5806342;9.2732167;shop;clothes;limited;osm_node
osm:node_2362260179;BCC di Carate Brianza;45.5819663;9.273203;amenity;bank;;osm_node
osm:node_2362260181;Pasticceria Bona;45.582143;9.2730525;amenity;cafe;;osm_node
osm:node_2362260184;Convento Adoratrici Perpetue del Santissimo Scramento;45.5815442;9.2749754;amenity;monastery;;osm_node
osm:node_2362260211;BOGGI Milano;45.5821496;9.2740058;shop;clothes;no;osm_node
osm:node_2362260214;Brian & Barry;45.5821379;9.273848;shop;clothes;limited;osm_node
osm:node_2362260217;Agenzia delle Entrate;45.5823554;9.2733645;office;government;;osm_node
osm:node_2362260219;OVS;45.5827184;9.2736479;shop;clothes;limited;osm_node
osm:node_2362304224;Il Caffè della Piazza;45.5831114;9.273836;amenity;cafe;;osm_node
osm:node_2362304225;Luisa Spagnoli;45.5835729;9.2744007;shop;clothes;limited;osm_node
osm:node_2362304226;Libri e Libri;45.5832952;9.2739898;shop;books;;osm_node
osm:node_2362304227;Uain;45.5829764;9.2746001;amenity;bar;yes;osm_node
osm:node_2362304251;Giocheria;45.5848423;9.2748239;shop;toys;;osm_node
osm:node_2362304252;Carrefour Express;45.5849174;9.2745343;shop;convenience;;osm_node
osm:node_2362304253;Crocifisso;45.5834344;9.2749339;historic;memorial;limited;osm_node
osm:node_2362304255;TIM;45.5827288;9.2740905;shop;telecommunication;;osm_node
osm:node_2362304271;Libreria Duomo;45.5834052;9.2746351;shop;books;;osm_node
osm:node_2362304273;Armonia;45.5829486;9.2742576;shop;pastry;;osm_node
osm:node_2362304274;Stefanel;45.5841945;9.2752654;shop;clothes;limited;osm_node
osm:node_2362304276;Caffè Vergnano;45.5840031;9.2751239;amenity;cafe;no;osm_node
osm:node_2362304277;Lecchi;45.5847596;9.2752091;shop;clothes;;osm_node
osm:node_2362304281;Lacoste;45.5842056;9.2763509;shop;clothes;;osm_node
osm:node_2362304282;Bar Savoia;45.5842194;9.276255;amenity;cafe;;osm_node
osm:node_2362304289;Musei Civici di Monza;45.5827476;9.2746049;tourism;museum;yes;osm_node
osm:node_2362313529;Mino Parrucchiere;45.5822315;9.2803621;shop;hairdresser;;osm_node
osm:node_2362350389;Buns;45.5845699;9.2770853;amenity;restaurant;;osm_node
osm:node_2362350395;Garibaldi Cafè;45.5846981;9.2770862;amenity;bar;;osm_node
osm:node_2362350397;Banca Fideuram;45.5848986;9.277797;amenity;bank;;osm_node
osm:node_2362350484;Circolo Garibaldi;45.5854947;9.2795421;amenity;restaurant;;osm_node
osm:node_2362350487;Farmacia Casanova;45.5851028;9.2814563;amenity;pharmacy;;osm_node
osm:node_2362350493;Farmacia Villa;45.5843741;9.2807289;amenity;pharmacy;;osm_node
osm:node_2362350504;Libero Milano;45.5853991;9.2755646;shop;clothes;limited;osm_node
osm:node_2362350506;Mediobanca Premier;45.5861024;9.2757644;amenity;bank;;osm_node
osm:node_2362350509;Clan;45.5868851;9.2764752;shop;clothes;no;osm_node
osm:node_2362350512;hey lash;45.5871946;9.2759666;shop;beauty;;osm_node
osm:node_2362350516;Antica Trattoria dell'Uva;45.5868965;9.2761625;tourism;hotel;no;osm_node
osm:node_2362350650;Farmacia Manzoni;45.5845639;9.2708514;amenity;pharmacy;;osm_node
osm:node_2364894674;Max Mara;45.5835231;9.2740682;shop;clothes;yes;osm_node
osm:node_2371150979;Monte dei Paschi;45.5829533;9.2733223;amenity;bank;;osm_node
osm:node_2371150994;Biblioteca dei Ragazzi;45.5834025;9.2727579;amenity;library;;osm_node
osm:node_2371151012;Intesa Sanpaolo;45.583061;9.272682;amenity;bank;;osm_node
osm:node_2371151014;tulip;45.5844957;9.2728782;amenity;bar;;osm_node
osm:node_2371151015;Caffè Carducci;45.5847359;9.272948;amenity;cafe;;osm_node
osm:node_2371151016;the Flat - cocktail bar;45.5841402;9.2718885;amenity;cafe;;osm_node
osm:node_2371151017;Galleria Civica;45.5838371;9.2718929;amenity;arts_centre;;osm_node
osm:node_2371151018;Madi;45.584491;9.2716513;amenity;cafe;;osm_node
osm:node_2371151024;Simply;45.5831933;9.2769455;shop;clothes;;osm_node
osm:node_2371151025;AmaThi;45.5830604;9.2768598;shop;beauty;;osm_node
osm:node_2371151028;Calzedonia;45.5829864;9.2740101;shop;clothes;no;osm_node
osm:node_2371151029;Yamamay;45.5830701;9.2740344;shop;clothes;no;osm_node
osm:node_2371151030;Intimissimi;45.5835946;9.2741118;shop;clothes;limited;osm_node
osm:node_2371151031;Enoteca Meregalli;45.5831264;9.2740465;shop;wine;no;osm_node
osm:node_2371151033;Marco Monza;45.5818354;9.2739925;shop;clothes;no;osm_node
osm:node_2371151034;La Romana;45.5851465;9.2753564;amenity;ice_cream;;osm_node
osm:node_2372416230;Giada Beauty Center;45.5830149;9.2747568;shop;beauty;;osm_node
osm:node_2372416235;Solo Pelle;45.5830301;9.274391;shop;bag;;osm_node
osm:node_2372416239;Varallo Gioielli;45.5829435;9.2743389;shop;jewelry;;osm_node
osm:node_2372416281;Caffè Zucchi;45.5858176;9.2741044;amenity;cafe;;osm_node
osm:node_2372416283;Banco di Desio;45.5855852;9.2740523;amenity;bank;;osm_node
osm:node_2372416288;Rosy;45.5857297;9.2735316;shop;beauty;;osm_node
osm:node_2372416292;Crédit Agricole;45.5859384;9.2741435;amenity;bank;;osm_node
osm:node_2372416294;Lievito;45.5859498;9.2734498;shop;pastry;;osm_node
osm:node_2372416296;Caffè del Borgo;45.5851716;9.2743719;amenity;cafe;;osm_node
osm:node_2372416297;Centrale Carni;45.5852633;9.2743778;shop;butcher;;osm_node
osm:node_2372503515;Museo Talamoni;45.583479;9.2797274;tourism;museum;;osm_node
osm:node_2372503516;Pironi Calzature;45.5838123;9.2792714;shop;shoes;limited;osm_node
osm:node_2372503540;Ponte dei Leoni;45.5839749;9.2777996;shop;hairdresser;limited;osm_node
osm:node_2372503543;Ottica Barzaghi;45.5839686;9.2778647;shop;optician;;osm_node
osm:node_2372503546;Zero16;45.5839549;9.2779331;shop;baby_goods;;osm_node
osm:node_2372503591;Caffè del Ponte;45.5838947;9.2787634;amenity;cafe;;osm_node
osm:node_2372503592;La dispensa alpina;45.5840274;9.2787448;shop;deli;limited;osm_node
osm:node_2372503593;Woody;45.5841425;9.2795466;amenity;pub;;osm_node
osm:node_2372503594;Pescheria fish and wine;45.5842662;9.2797715;shop;seafood;;osm_node
osm:node_2372503595;Leoni;45.5837634;9.2795061;amenity;ice_cream;limited;osm_node
osm:node_2372503596;Primigi;45.5836267;9.2794768;shop;shoes;;osm_node
osm:node_2372503598;Sara B Home;45.5846759;9.2803287;shop;houseware;;osm_node
osm:node_2372503630;Novia;45.5851675;9.2808576;shop;clothes;;osm_node
osm:node_2372503659;Sapone del Mugello;45.5850902;9.2815741;shop;chemist;;osm_node
osm:node_2372503660;Caffè Portici;45.5845878;9.2819758;amenity;cafe;;osm_node
osm:node_2372503661;Miles Café;45.5842913;9.2806629;amenity;bar;;osm_node
osm:node_2372503663;Il Forno di Francesco;45.5842275;9.2808062;shop;bakery;;osm_node
osm:node_2372503665;Silvano Fashion Hair;45.5849461;9.2817056;shop;hairdresser;;osm_node
osm:node_2372503687;Barbecue Hooligans;45.5841963;9.2809189;amenity;fast_food;;osm_node
osm:node_2372503770;Clars;45.584013;9.2822549;amenity;restaurant;;osm_node
osm:node_2372503774;Tempor;45.5841734;9.2812956;office;employment_agency;;osm_node
osm:node_2372503778;Pak Doner Kebab;45.5842646;9.2810131;amenity;fast_food;;osm_node
osm:node_2372503781;San Giacomo Maggiore;45.5842737;9.2820488;historic;memorial;;osm_node
osm:node_2372503785;Massimo;45.5844059;9.2823451;shop;hairdresser;;osm_node
osm:node_2372503831;El Supremo;45.5839479;9.2823981;amenity;fast_food;;osm_node
osm:node_2372503837;Cool;45.5840468;9.2785194;amenity;ice_cream;;osm_node
osm:node_2375260738;Findomestic;45.5798437;9.2731587;amenity;bank;;osm_node
osm:node_2375260739;Universo Moda;45.5798901;9.2727655;shop;clothes;;osm_node
osm:node_2375260741;Zia Maria;45.5794352;9.2728502;shop;cannabis;;osm_node
osm:node_2375260743;A. Palma;45.5803168;9.2730747;shop;jewelry;;osm_node
osm:node_2375260744;Galatasaray;45.5804764;9.2730269;amenity;fast_food;;osm_node
osm:node_2375349213;Fratelli Carli;45.5808304;9.2733702;shop;health_food;;osm_node
osm:node_2375349214;Perc e co.;45.5809082;9.2734059;shop;clothes;;osm_node
osm:node_2375349244;Doppelgänger;45.5809751;9.2734366;shop;clothes;;osm_node
osm:node_2375349246;Fastweb;45.581093;9.273794;shop;telecommunication;;osm_node
osm:node_2375349247;Dev;45.5812113;9.2738503;shop;clothes;;osm_node
osm:node_2375349273;GrandVision;45.5811702;9.273542;shop;optician;yes;osm_node
osm:node_2375349274;Ottica Morini;45.5812419;9.2735765;shop;optician;;osm_node
osm:node_2375349275;Mendino;45.5813131;9.2736101;shop;bag;;osm_node
osm:node_2375349276;Biarritz cashmere;45.5813968;9.2736563;shop;clothes;;osm_node
osm:node_2375349277;Dixie;45.5814786;9.2736961;shop;clothes;;osm_node
osm:node_2375349278;Gioielleria Canali;45.5816287;9.2737525;shop;jewelry;;osm_node
osm:node_2375349280;Naracamicie;45.5813262;9.2738988;shop;clothes;;osm_node
osm:node_2375349281;twinset;45.5813849;9.2739231;shop;clothes;;osm_node
osm:node_2375349282;Blue Star Gioielli;45.5814406;9.2739407;shop;jewelry;;osm_node
osm:node_2375349283;Wind Tre;45.581504;9.2739584;shop;telecommunication;;osm_node
osm:node_2375349284;fcode;45.5815787;9.2739797;shop;clothes;no;osm_node
osm:node_2375349285;Furla;45.5816215;9.2739938;shop;bag;;osm_node
osm:node_2375349286;dm;45.5818534;9.2738281;shop;chemist;yes;osm_node
osm:node_2375349288;Andrew's Ties;45.5819297;9.2739889;shop;clothes;no;osm_node
osm:node_2375349290;Angels;45.582044;9.2739934;shop;clothes;no;osm_node
osm:node_2375349291;Yves Rocher;45.5822214;9.2740014;shop;beauty;no;osm_node
osm:node_2375349293;Carnelli;45.5822693;9.2738546;shop;clothes;;osm_node
osm:node_2375349294;Pratum Magnum;45.5836828;9.2740456;amenity;cafe;;osm_node
osm:node_2375349296;Bijou Brigitte;45.5827629;9.2741074;shop;jewelry;;osm_node
osm:node_2375349297;Falconeri;45.5826776;9.2740624;shop;clothes;no;osm_node
osm:node_2375349298;PUPA Milano;45.582488;9.274018;shop;cosmetics;limited;osm_node
osm:node_2375349299;Elena Mirò;45.5825964;9.2740487;shop;clothes;yes;osm_node
osm:node_2375349300;Il dolce cortile;45.5826187;9.2741307;shop;pastry;;osm_node
osm:node_2375349302;Dan John;45.5829867;9.2741639;shop;clothes;no;osm_node
osm:node_2375349303;La Casa dei Formaggi;45.5831026;9.2741837;shop;convenience;;osm_node
osm:node_2375349304;Andros;45.5832072;9.2742011;shop;clothes;no;osm_node
osm:node_2375349305;Moreal;45.5833125;9.2742062;shop;clothes;no;osm_node
osm:node_2375349306;Marina Rinaldi;45.5834242;9.2742611;shop;clothes;;osm_node
osm:node_2375349307;MAX&Co.;45.5835031;9.2743163;shop;clothes;;osm_node
osm:node_2375349308;Candy world;45.583623;9.2742063;shop;confectionery;;osm_node
osm:node_2375349309;Geox;45.5839963;9.2746287;shop;shoes;no;osm_node
osm:node_2375349310;Goldenpoint;45.5840413;9.2746823;shop;clothes;no;osm_node
osm:node_2375349311;KIKO Milano;45.5841582;9.2750735;shop;cosmetics;limited;osm_node
osm:node_2375349312;Pandora;45.5837375;9.2745412;shop;jewelry;no;osm_node
osm:node_2375349313;Gioielleria Samarcanda;45.5837891;9.2745978;shop;jewelry;;osm_node
osm:node_2375349314;Barzaghi;45.583832;9.2746463;shop;optician;no;osm_node
osm:node_2375349315;Intimissimi Uomo;45.584054;9.2749019;shop;clothes;;osm_node
osm:node_2375349316;Nespresso;45.5838777;9.2747211;shop;coffee;no;osm_node
osm:node_2375349330;Bottega verde;45.5844211;9.2756095;shop;herbalist;no;osm_node
osm:node_2375349331;Gallo;45.5844133;9.2756879;shop;clothes;no;osm_node
osm:node_2375349332;Erboristeria Estragon;45.5844009;9.275773;shop;herbalist;;osm_node
osm:node_2375349333;WS Group;45.584384;9.2759395;office;estate_agent;;osm_node
osm:node_2375349334;Goloso siciliano;45.583931;9.2772541;shop;confectionery;;osm_node
osm:node_2375349335;Daniel & Mayer;45.584245;9.276021;shop;clothes;;osm_node
osm:node_2375349336;L'Erbolario;45.584232;9.2761509;shop;herbalist;;osm_node
osm:node_2375349337;Il Laccio;45.5842147;9.276301;shop;shoes;;osm_node
osm:node_2375349338;Mariani Gioielli;45.5841985;9.2764103;shop;jewelry;;osm_node
osm:node_2375349339;La Dea;45.5841892;9.2764854;shop;clothes;;osm_node
osm:node_2375349340;Pinalli;45.584183;9.2765759;shop;perfumery;;osm_node
osm:node_2375349341;Soldout Milano;45.5841707;9.2766533;shop;clothes;;osm_node
osm:node_2375349342;RomAntica;45.5841629;9.2767328;amenity;fast_food;;osm_node
osm:node_2375413449;Sergent Major;45.5841467;9.2768334;shop;clothes;limited;osm_node
osm:node_2375413455;Timberland;45.584125;9.2769703;shop;shoes;no;osm_node
osm:node_2375413474;Stelio;45.5841065;9.2770918;shop;clothes;;osm_node
osm:node_2375413492;Gardi Gioielli;45.5840848;9.2772818;shop;jewelry;;osm_node
osm:node_2375413542;Liu Jo;45.5843111;9.2765985;shop;clothes;;osm_node
osm:node_2375413558;Original Marines;45.5842831;9.2767034;shop;clothes;no;osm_node
osm:node_2375413562;Jacadi;45.5842622;9.276833;shop;clothes;no;osm_node
osm:node_2381609952;Pam Local;45.5810404;9.2737699;shop;convenience;;osm_node
osm:node_2381609966;Burgez Monza;45.579574;9.2729447;amenity;fast_food;;osm_node
osm:node_2381609972;Max factory;45.580911;9.2737041;shop;clothes;limited;osm_node
osm:node_2381632262;Locanda San Paolo;45.5854676;9.2740248;tourism;hotel;;osm_node
osm:node_2381632353;Monumento a Vittorio Emanuele II;45.5884351;9.275708;historic;memorial;;osm_node
osm:node_2381660355;Demetra Studio Medico;45.5839574;9.2771334;amenity;doctors;;osm_node
osm:node_2381660378;Ago Agitato Tattoo;45.5828686;9.2762519;shop;tattoo;;osm_node
osm:node_2381660385;Starcopying;45.5846069;9.2767239;shop;copyshop;;osm_node
osm:node_2381660395;Isabella Flower Design;45.5828386;9.2763914;shop;florist;;osm_node
osm:node_2381660397;Cantina dei Sapori;45.5839994;9.2766779;amenity;bar;;osm_node
osm:node_2381660403;Norggatan;45.5839236;9.2767561;shop;clothes;;osm_node
osm:node_2381660404;L'Orto del Centro;45.5823374;9.2766006;shop;greengrocer;;osm_node
osm:node_2381693546;Surya Namaskar Madre Terra;45.5839995;9.2762312;shop;variety_store;;osm_node
osm:node_2381693556;La cantina della monaca;45.5840221;9.2759807;amenity;restaurant;;osm_node
osm:node_2381693565;Ok Oro;45.5830076;9.2749805;shop;jewelry;;osm_node
osm:node_2381693570;Saint;45.5835294;9.2746882;amenity;bar;;osm_node
osm:node_2381693581;Cotton Club;45.5839181;9.2753346;shop;clothes;;osm_node
osm:node_2381693609;OmegaFish;45.582639;9.2747132;amenity;restaurant;;osm_node
osm:node_2381693623;Tearose Cafè;45.5836364;9.2748249;amenity;cafe;;osm_node
osm:node_2381693632;Salotto Teodolinda;45.5827473;9.274774;shop;clothes;;osm_node
osm:node_2381693666;Handicraft;45.5830806;9.2745194;shop;carpet;;osm_node
osm:node_2381693681;Gori e Benassi;45.5839998;9.2764732;shop;hairdresser;;osm_node
osm:node_2381701353;Nuovo Istituto Alessandro Manzoni;45.5851445;9.2766032;amenity;school;;osm_node
osm:node_2381701355;Mariano;45.5824334;9.2746361;shop;fabric;;osm_node
osm:node_2381701358;Il Pizzicagnolo;45.5845301;9.2760324;shop;deli;;osm_node
osm:node_2381746470;Luxury Class;45.5850425;9.2754719;shop;gift;;osm_node
osm:node_2381746481;Pini Geremia;45.5847028;9.2764166;shop;frame;;osm_node
osm:node_2381746486;Rolex;45.5848322;9.2754419;shop;watches;;osm_node
osm:node_2381746496;Il Fornaio Golosone;45.5846971;9.2758174;shop;bakery;;osm_node
osm:node_2381746503;Civico 7;45.5850735;9.2753354;shop;clothes;;osm_node
osm:node_2381746506;Salmoiraghi & Viganò;45.5853128;9.2753909;shop;optician;;osm_node
osm:node_2381746518;Outlet;45.5854741;9.2754284;shop;clothes;;osm_node
osm:node_2381746524;NAU!;45.5848978;9.2754445;shop;optician;no;osm_node
osm:node_2381746528;Il Fornaio dell'Arengario;45.5851056;9.2753462;shop;bakery;;osm_node
osm:node_2381746531;Vampe;45.5848547;9.2752624;shop;household;limited;osm_node
osm:node_2381746538;Bar Dam;45.5846971;9.2754016;amenity;cafe;;osm_node
osm:node_2381746541;Lego;45.5851818;9.2755108;shop;toys;;osm_node
osm:node_2381746544;Albergo Ristorante Fantello;45.5847683;9.2758364;tourism;hotel;;osm_node
osm:node_2381746549;Amplifon;45.5872331;9.2761821;shop;hearing_aids;;osm_node
osm:node_2381746554;Ronchi Gioielli;45.5849917;9.2753026;shop;jewelry;no;osm_node
osm:node_2381746559;Italian Style;45.584452;9.2760002;shop;hairdresser;;osm_node
osm:node_2381746564;Nenette;45.5854629;9.2755894;shop;clothes;;osm_node
osm:node_2381746570;Francesco Messina;45.5849749;9.2754579;shop;hairdresser;no;osm_node
osm:node_2381746572;La Cafeteria;45.5850396;9.2753174;amenity;cafe;;osm_node
osm:node_2381746575;Petit Bateau;45.5849241;9.2752758;shop;clothes;limited;osm_node
osm:node_2381746578;Libreria dell'Arengario;45.5847199;9.2755794;shop;books;;osm_node
osm:node_2381746583;Gattinoni Travel Network;45.5853747;9.2754097;shop;travel_agency;no;osm_node
osm:node_2381746593;Fun Slot;45.5846689;9.2760749;amenity;gambling;;osm_node
osm:node_2382500066;Pozzilei;45.5859289;9.2755505;shop;bag;no;osm_node
osm:node_2382500070;Punti e fantasia;45.5864148;9.2758213;shop;gift;;osm_node
osm:node_2382500074;AlaVida;45.5859982;9.2755693;shop;clothes;;osm_node
osm:node_2382500079;Meroni;45.5860613;9.2755927;shop;perfumery;no;osm_node
osm:node_2382500082;Igino Massari;45.5859945;9.27569;shop;pastry;;osm_node
osm:node_2382500094;Area Platinum;45.5856949;9.2755111;office;estate_agent;limited;osm_node
osm:node_2382500096;Madame Sicò;45.5857671;9.2755319;shop;jewelry;no;osm_node
osm:node_2382500104;La Boutique dei Sapori;45.5858121;9.2755006;shop;deli;no;osm_node
osm:node_2382500106;Centemero Gioielli;45.5856225;9.2754951;shop;jewelry;no;osm_node
osm:node_2382500109;Paolo Pessina;45.5856524;9.2756392;shop;clothes;no;osm_node
osm:node_2382500119;Valleverde;45.585563;9.2754701;shop;shoes;no;osm_node
osm:node_2382500124;Remida Tornaghi;45.5858612;9.2756685;shop;jewelry;;osm_node
osm:node_2382521044;Ops;45.5866646;9.2758026;shop;bag;;osm_node
osm:node_2382521047;Fenice;45.5867247;9.2758348;amenity;bar;;osm_node
osm:node_2382521051;Caprotti Luce;45.587712;9.2759635;shop;lighting;;osm_node
osm:node_2382521052;Clinica iPhone;45.5875074;9.2758884;craft;electronics_repair;;osm_node
osm:node_2382521063;Tirelli Due;45.5868001;9.2758783;shop;clothes;;osm_node
osm:node_2382521064;Martino Midali;45.5866038;9.275914;shop;clothes;no;osm_node
osm:node_2382521069;Immobiliare i90;45.5873592;9.2761003;office;estate_agent;;osm_node
osm:node_2382521070;Gabetti;45.5868646;9.2760214;office;estate_agent;yes;osm_node
osm:node_2382521077;Città del sole;45.5870626;9.275985;shop;toys;no;osm_node
osm:node_2382521078;Castignoli;45.5869034;9.275933;shop;jewelry;;osm_node
osm:node_2382521079;B.;45.5865164;9.2757221;amenity;cafe;;osm_node
osm:node_2382521081;Ottico Rivolta;45.5869799;9.2759508;shop;optician;;osm_node
osm:node_2382521085;Il Giardino Segreto;45.5875507;9.2760145;amenity;kindergarten;;osm_node
osm:node_2382521094;Amerigo;45.5869334;9.2759483;shop;gift;;osm_node
osm:node_2383557257;Double B;45.5807998;9.2736386;shop;clothes;;osm_node
osm:node_2383557266;Monza Payitaht Istanbul Kebab&Pizza;45.58007;9.272922;amenity;fast_food;;osm_node
osm:node_2383557270;Aimely lashes & brows;45.5802363;9.2730353;shop;clothes;;osm_node
osm:node_2383557276;Upim;45.5807542;9.2736772;shop;department_store;;osm_node
osm:node_2383603146;Sala del Regno dei Testimoni di Geova - congregazione Monza sud;45.577513;9.2765376;amenity;place_of_worship;;osm_node
osm:node_2385329988;Sardicicli;45.5893582;9.2823219;shop;bicycle;;osm_node
osm:node_2386780984;Spontini;45.5829043;9.2736142;amenity;fast_food;;osm_node
osm:node_2386781007;Scuola di Musica di Silvia Corrieri;45.5838223;9.2773263;amenity;music_school;;osm_node
osm:node_2386807967;Dada;45.5811547;9.2722517;shop;furniture;;osm_node
osm:node_2386807970;UniCredit Bank;45.5821423;9.271624;amenity;bank;;osm_node
osm:node_2386807971;Lloyd Adriatico;45.5826036;9.2715064;office;insurance;;osm_node
osm:node_2386807973;Caffè & Caffè;45.5823413;9.2736083;amenity;cafe;yes;osm_node
osm:node_2386807974;Colorificio Manzoni;45.5810984;9.2723106;shop;paint;;osm_node
osm:node_2386807977;Toscano;45.5821677;9.2719677;office;estate_agent;;osm_node
osm:node_2386807984;Toro Assicurazioni;45.582587;9.2719157;office;insurance;;osm_node
osm:node_2386807992;Panino Giusto;45.5823461;9.2723804;amenity;fast_food;;osm_node
osm:node_2386807995;Materassi & materassi;45.5820156;9.2720396;shop;bed;;osm_node
osm:node_2388764044;Planning Ingegneria Impiantistica;45.5812372;9.2764263;office;engineering;;osm_node
osm:node_2388790630;Ria Money Transfer;45.577166;9.2723254;amenity;money_transfer;;osm_node
osm:node_2388790735;ACI;45.5770817;9.2709269;office;government;;osm_node
osm:node_2388790745;PD Monza e Brianza;45.5766445;9.2720491;office;political_party;;osm_node
osm:node_2388819280;BPER Banca;45.5778612;9.271803;amenity;bank;;osm_node
osm:node_2388819283;Banca di Asti;45.5782882;9.2715868;amenity;bank;;osm_node
osm:node_2388819284;Pulsazione;45.5782654;9.2710573;shop;beauty;;osm_node
osm:node_2388819285;Royal;45.5781943;9.2712494;office;estate_agent;;osm_node
osm:node_2388819286;Gioielleria Scaccabarozzi;45.5774341;9.2711469;shop;jewelry;;osm_node
osm:node_2388819289;IBL banca;45.5769571;9.2708438;amenity;bank;;osm_node
osm:node_2388819290;Centro Operativo di Monza - ACLI Milano servizi fiscali;45.5780705;9.2723593;office;accountant;;osm_node
osm:node_2388819293;Zhong Xing;45.5773157;9.2710638;amenity;restaurant;;osm_node
osm:node_2388819299;Sartoria Lele;45.5783315;9.2708878;craft;dressmaker;;osm_node
osm:node_2388819300;Franco e Franco;45.5781536;9.2713694;shop;clothes;;osm_node
osm:node_2388819304;Bar Rosalia;45.5776293;9.2716555;amenity;cafe;;osm_node
osm:node_2388819308;Edilizia Acrobatica;45.5780705;9.2715734;office;company;;osm_node
osm:node_2388819309;Autosilo Corso Milano;45.57801;9.2702891;amenity;parking_entrance;;osm_node
osm:node_2388819319;Spazio Danza;45.577158;9.2709833;leisure;dance;;osm_node
osm:node_2388819324;Shopping Club;45.5783521;9.2713508;shop;clothes;;osm_node
osm:node_2388819330;Il Cafferino;45.5780005;9.2715491;amenity;cafe;;osm_node
osm:node_2388841135;Motosalone;45.5793881;9.2702593;shop;motorcycle;;osm_node
osm:node_2388841145;Visionottica Indipendenza;45.5788101;9.270125;shop;optician;yes;osm_node
osm:node_2388841149;Bar Piazzetta;45.5789753;9.270007;amenity;cafe;limited;osm_node
osm:node_2388841152;Just B;45.5787069;9.2695751;shop;hairdresser;limited;osm_node
osm:node_2388841154;Pani e Tulipani;45.5787257;9.2701116;shop;bakery;limited;osm_node
osm:node_2388841161;Sovrana;45.5784097;9.2706422;shop;jewelry;;osm_node
osm:node_2388841162;Muse Nails Salon;45.5785538;9.2701411;shop;beauty;;osm_node
osm:node_2388841170;La Fontana;45.5785793;9.2700472;amenity;restaurant;;osm_node
osm:node_2388841179;Fratelli Scardua;45.5784568;9.270449;shop;electronics;;osm_node
osm:node_2388841181;Wineline;45.5794828;9.2703016;amenity;restaurant;;osm_node
osm:node_2388841182;Bonetti Arreda;45.5784985;9.2703235;shop;furniture;;osm_node
osm:node_2388872525;Autoscuola Astra;45.580394;9.2728278;amenity;driving_school;;osm_node
osm:node_2388872529;Verde;45.5799798;9.2725336;shop;greengrocer;;osm_node
osm:node_2388872530;Pizza Ok;45.5803778;9.2716941;amenity;fast_food;;osm_node
osm:node_2388872531;Coiffure de Paris;45.5799244;9.2705152;shop;hairdresser;;osm_node
osm:node_2388872532;Monza Alimentari;45.5799997;9.2722157;shop;convenience;;osm_node
osm:node_2388872533;Martin;45.5800098;9.2724773;shop;houseware;;osm_node
osm:node_2388872535;Unipol;45.5802989;9.2712193;office;insurance;;osm_node
osm:node_2388872536;White Horse;45.5804246;9.2715841;amenity;cafe;;osm_node
osm:node_2388872538;Monza travel;45.5800642;9.270581;shop;travel_agency;;osm_node
osm:node_2388872539;Scarpe a stock;45.5799194;9.2723971;shop;shoes;;osm_node
osm:node_2388872542;Delivery Valley;45.5798735;9.2704928;amenity;fast_food;;osm_node
osm:node_2390760228;Moba Monza;45.5843833;9.2801932;shop;clothes;;osm_node
osm:node_2390760233;Quadri e Cornici;45.5843936;9.2803706;shop;frame;;osm_node
osm:node_2390767716;Polizia Ferroviaria;45.5783017;9.2732243;amenity;police;;osm_node
osm:node_2390782109;Sartoria Wang;45.5800217;9.2721672;craft;tailor;;osm_node
osm:node_2390782156;Cereda;45.5794514;9.272534;shop;shoes;;osm_node
osm:node_2390782163;Sharlene Calzature;45.5800728;9.2720641;shop;shoes;;osm_node
osm:node_2390782166;Raulstaff;45.5844077;9.2704585;shop;hairdresser;;osm_node
osm:node_2390782195;Gelateria Il Pavone;45.5801323;9.2719285;amenity;ice_cream;;osm_node
osm:node_2394258087;Caffetteria Novecento;45.579691;9.2726651;amenity;cafe;;osm_node
osm:node_2394258092;Macelleria amici;45.5792679;9.2724029;shop;butcher;;osm_node
osm:node_2394270033;La cucina di via Zucchi;45.585907;9.2747636;amenity;restaurant;;osm_node
osm:node_2394270034;Drawing Room;45.5858274;9.275264;amenity;cafe;;osm_node
osm:node_2394270039;Sciuè Sciuè;45.5855029;9.2740062;amenity;restaurant;;osm_node
osm:node_2394280202;Drogheria Cirla;45.5859141;9.2744594;shop;confectionery;no;osm_node
osm:node_2394280203;Capitol Cafè;45.5865467;9.2743548;amenity;cafe;;osm_node
osm:node_2394280206;SOGIM;45.5859271;9.2742824;office;estate_agent;limited;osm_node
osm:node_2394280207;Cosmeo;45.5861543;9.2743039;shop;beauty;;osm_node
osm:node_2394280209;Dolce Caffè;45.5860361;9.2742744;amenity;cafe;;osm_node
osm:node_2394283351;Il Cittadino;45.5870141;9.2751005;office;newspaper;;osm_node
osm:node_2394283355;Errecicasa;45.5876185;9.273695;office;estate_agent;;osm_node
osm:node_2394291800;San Carlo Borromeo;45.5857244;9.2728716;historic;memorial;;osm_node
osm:node_2394298135;Umana;45.5878023;9.2722681;office;employment_agency;;osm_node
osm:node_2394298142;Pane, Amore e Fantasia;45.5878511;9.2724957;shop;bakery;;osm_node
osm:node_2394312923;Nomen Barbershop;45.5875941;9.272421;shop;hairdresser;;osm_node
osm:node_2394312927;Ali Baba;45.5874053;9.2720482;shop;carpet;;osm_node
osm:node_2394312931;Area;45.5872843;9.2714717;shop;furniture;;osm_node
osm:node_2394312936;Cristina Proposte Tessili;45.5875246;9.2724424;shop;fabric;;osm_node
osm:node_2394321935;Speedy;45.5869275;9.2703664;amenity;pub;;osm_node
osm:node_2394321940;Pane e tulipani;45.5867347;9.2704162;shop;bakery;limited;osm_node
osm:node_2394321946;Ronchi è abitare;45.5871061;9.2706747;shop;furniture;limited;osm_node
osm:node_2394321948;Bergomi Liste Nozze;45.5867437;9.2701384;shop;household;;osm_node
osm:node_2394336669;BPER;45.5865184;9.2702081;amenity;bank;;osm_node
osm:node_2394336671;Ortopedia Pirola;45.5866424;9.2703408;shop;orthopedics;;osm_node
osm:node_2394336672;Bar San Biagio;45.5866198;9.2700472;amenity;cafe;;osm_node
osm:node_2394336673;Vento Coloniale;45.5865766;9.2704257;shop;travel_agency;;osm_node
osm:node_2394349621;Caffè Armani;45.586392;9.2705583;amenity;cafe;;osm_node
osm:node_2394360256;E. Vigano;45.5862119;9.2709102;shop;doityourself;;osm_node
osm:node_2394360257;Banca Popolare di Lodi;45.5860454;9.2714717;amenity;bank;;osm_node
osm:node_2394360259;Engel & Völkers;45.5861862;9.2711874;office;estate_agent;;osm_node
osm:node_2394360279;Qua Qua;45.5861367;9.2712784;shop;clothes;;osm_node
osm:node_2394365458;Le petit bar;45.5857393;9.2730429;amenity;cafe;;osm_node
osm:node_2394365459;grō;45.5856064;9.2729141;amenity;fast_food;;osm_node
osm:node_2394365461;D&D Nail;45.5859407;9.2736619;shop;beauty;;osm_node
osm:node_2394365462;Macelleria Sanvito;45.5853115;9.272877;shop;butcher;;osm_node
osm:node_2394370261;Modoetia Carta;45.5857728;9.2722735;shop;art;;osm_node
osm:node_2394370262;Ottica Annoni;45.5858122;9.2718467;shop;optician;;osm_node
osm:node_2394370263;Colombo;45.5855387;9.2727832;shop;clothes;;osm_node
osm:node_2394370264;Fiore;45.5857686;9.272363;shop;clothes;;osm_node
osm:node_2396603810;Mappa del Parco;45.5978563;9.2753114;tourism;information;;osm_node
osm:node_2396603811;Cascina Bastia;45.5977201;9.2737731;amenity;bicycle_rental;;osm_node
osm:node_2396618135;Autodromo Nazionale di Monza;45.6191059;9.282641;leisure;sports_centre;;osm_node
osm:node_2396644388;Ristorante Tribuna d'Onore;45.61905;9.280491;amenity;restaurant;;osm_node
osm:node_2396644394;Juan Manuel Fangio;45.6187536;9.2831195;historic;memorial;;osm_node
osm:node_2398430815;Lavanderia Elite;45.5858273;9.2736779;shop;dry_cleaning;;osm_node
osm:node_2398430818;Viganoni Bilance;45.5858273;9.2739729;shop;household;;osm_node
osm:node_2398430824;Mario Passoni;45.585477;9.273684;shop;hairdresser;;osm_node
osm:node_2401814478;Caffè e Dintorni;45.5774489;9.2758901;amenity;cafe;;osm_node
osm:node_2401814486;APG Consulting;45.5775707;9.2756303;office;company;;osm_node
osm:node_2401814491;Dara Thai;45.5774448;9.2758346;shop;massage;;osm_node
osm:node_2401820008;Gioielleria Trabucco;45.5774657;9.2762606;shop;jewelry;;osm_node
osm:node_2401820009;Pierre Tende;45.577492;9.2764269;shop;curtain;;osm_node
osm:node_2401820012;Centro diretto Carglass Monza via Mentana;45.5778204;9.2765503;shop;car_repair;;osm_node
osm:node_2401830005;ARP Bike;45.5776056;9.2775791;shop;motorcycle;;osm_node
osm:node_2401830060;Wall Street Institute;45.5777096;9.2767997;amenity;language_school;;osm_node
osm:node_2401834168;La Viestana;45.5775821;9.278798;amenity;restaurant;;osm_node
osm:node_2401834174;Arredamenti Giorgetti;45.5777433;9.2784279;shop;furniture;;osm_node
osm:node_2401843033;Vanilla Cafè;45.5777341;9.2792217;amenity;cafe;;osm_node
osm:node_2401843063;VaSICURO Building Management;45.5775876;9.2796402;office;company;;osm_node
osm:node_2401843066;Bangkok centro massaggi;45.5778825;9.2796375;shop;massage;;osm_node
osm:node_2401843167;La Lampara;45.5777341;9.2796402;amenity;restaurant;;osm_node
osm:node_2401843175;El Carajo D'suMare;45.5775857;9.2791466;amenity;restaurant;;osm_node
osm:node_2401860307;Smile Coffee;45.5777923;9.2810725;amenity;cafe;;osm_node
osm:node_2401860312;Colorificio Crudeli;45.5777652;9.2807299;shop;paint;;osm_node
osm:node_2401873725;Pasticceria Luzzara;45.578821;9.2824002;shop;pastry;;osm_node
osm:node_2401873728;Ristorante Pizzeria Da Franco;45.5778114;9.2822475;amenity;restaurant;;osm_node
osm:node_2401878048;Tian Zi;45.5790708;9.2824048;shop;hairdresser;;osm_node
osm:node_2401878052;Assicurazioni Stucchi;45.5793193;9.2824628;office;insurance;;osm_node
osm:node_2401878054;Beauty Line Professional;45.5793639;9.2824547;amenity;college;;osm_node
osm:node_2401888951;Milk and Coffee;45.5795733;9.2824168;amenity;cafe;;osm_node
osm:node_2401889058;Onoranze Funebri Galli;45.5795201;9.2824264;shop;funeral_directors;;osm_node
osm:node_2401898753;La Perla;45.5807834;9.2822596;shop;dry_cleaning;;osm_node
osm:node_2401898754;Labor Watch;45.5805762;9.2826091;shop;watches;;osm_node
osm:node_2401898758;Project Casa;45.5804666;9.2826165;shop;household;;osm_node
osm:node_2401898792;Ruggieri Case;45.5806786;9.2826022;office;estate_agent;;osm_node
osm:node_2401898793;Bismillah frutta & verdura;45.5806872;9.2822634;shop;greengrocer;;osm_node
osm:node_2401903566;Euro Expert Srls;45.5814153;9.2825751;amenity;money_transfer;;osm_node
osm:node_2404009213;UDC;45.5866028;9.2743685;office;political_party;;osm_node
osm:node_2404039977;Università Popolare;45.5823284;9.2745529;office;ngo;;osm_node
osm:node_2404056196;Il Giorno;45.5845004;9.2756398;office;newspaper;;osm_node
osm:node_2404056199;Ms Immobiliare;45.5838519;9.2790673;office;estate_agent;limited;osm_node
osm:node_2404056201;Juice;45.5840234;9.2790621;shop;computer;;osm_node
osm:node_2404056202;British Team;45.5844853;9.2757203;amenity;language_school;;osm_node
osm:node_2404056204;Dell'Orto;45.5838776;9.2789567;shop;clothes;no;osm_node
osm:node_2404056205;Franca;45.5840386;9.2792126;shop;beauty;;osm_node
osm:node_2404056206;Che Banca!;45.5839387;9.2780839;amenity;bank;yes;osm_node
osm:node_2404068781;Professione Casa;45.5838326;9.2824823;office;estate_agent;;osm_node
osm:node_2404068782;Enoteca Vinacolo;45.5838947;9.2826321;shop;beverages;;osm_node
osm:node_2404068783;Rani;45.583763;9.2828279;shop;gift;;osm_node
osm:node_2404068786;Logicenter;45.5838753;9.2827799;shop;beauty;;osm_node
osm:node_2404068788;Alternativa Sfusa;45.5837555;9.2828853;amenity;money_transfer;;osm_node
osm:node_2404068789;Al punt de la Mariota;45.5837253;9.2830103;amenity;cafe;;osm_node
osm:node_2404068790;BG Street;45.5838246;9.2830642;amenity;fast_food;;osm_node
osm:node_2404068791;Monguzzi gioielli;45.5837974;9.2826597;shop;jewelry;;osm_node
osm:node_2404068794;Il gusto della vita;45.5838583;9.282863;amenity;restaurant;;osm_node
osm:node_2404068798;Colorificio Pesa del Lino;45.5841269;9.2822622;shop;paint;;osm_node
osm:node_2404068799;Manpower;45.5837172;9.283078;office;employment_agency;;osm_node
osm:node_2404078055;1H Clean;45.5836804;9.2832946;shop;laundry;;osm_node
osm:node_2404078056;Cavaleri Giancarlo;45.5836607;9.283521;craft;glaziery;;osm_node
osm:node_2404078073;Borgo Caffè;45.5837479;9.2836226;amenity;pub;;osm_node
osm:node_2404078082;Bangla Bazar;45.5837816;9.2833631;shop;convenience;;osm_node
osm:node_2404078083;Antares;45.5837945;9.2832895;shop;clothes;;osm_node
osm:node_2404085458;Il Ranocchio;45.5836932;9.2840687;amenity;ice_cream;;osm_node
osm:node_2404085464;Dietro la Luna c'è;45.5835631;9.2842338;craft;handicraft;;osm_node
osm:node_2404090826;Electric Red;45.5836537;9.2844029;shop;tattoo;;osm_node
osm:node_2404090838;Vecchia Ostuni;45.5835148;9.2845845;amenity;restaurant;;osm_node
osm:node_2404090856;'A Vucchella;45.5836065;9.2847978;amenity;restaurant;;osm_node
osm:node_2404090867;Kadrega Cafè;45.5834847;9.2847886;amenity;cafe;;osm_node
osm:node_2404098448;Soraya;45.5834636;9.2850008;shop;carpet;;osm_node
osm:node_2404098461;Bar Giada;45.5832947;9.2864207;amenity;cafe;;osm_node
osm:node_2404098475;Cielo Azzurro;45.5834656;9.2849282;shop;beauty;;osm_node
osm:node_2404105765;Host Eria;45.5834358;9.2851967;amenity;restaurant;;osm_node
osm:node_2404105767;Poletto;45.5831112;9.2859208;shop;bicycle;;osm_node
osm:node_2404105770;Bar alla Stanga;45.5833274;9.2861627;amenity;cafe;;osm_node
osm:node_2404105778;Califano Pubblicità;45.5833784;9.2857054;craft;metal_construction;;osm_node
osm:node_2404141218;Emporio Casa;45.5814778;9.284992;shop;household;;osm_node
osm:node_2404141220;Ceylon multiservice;45.5816175;9.2842326;office;company;;osm_node
osm:node_2404141222;Piazza Cicli;45.5814909;9.2848254;shop;motorcycle;;osm_node
osm:node_2404141223;Nirvana Pub;45.5816042;9.2843578;amenity;pub;;osm_node
osm:node_2405924326;Agli aviatori caduti;45.5815787;9.2709097;historic;memorial;;osm_node
osm:node_2405924343;Il Feudo dei Sapori;45.5812726;9.2716736;amenity;restaurant;;osm_node
osm:node_2405934910;BNL;45.5820049;9.2711698;amenity;bank;;osm_node
osm:node_2405934913;My English School Monza;45.581289;9.2705233;amenity;language_school;;osm_node
osm:node_2405934919;Studio Villa & Turati;45.5816419;9.2717666;office;accountant;;osm_node
osm:node_2405934924;Compass;45.5813197;9.272409;office;insurance;;osm_node
osm:node_2405938644;Res Cafè;45.5820106;9.2697724;amenity;cafe;;osm_node
osm:node_2405938665;Fossati Interni;45.5820405;9.2699602;shop;interior_decoration;;osm_node
osm:node_2405939464;Omati Finestre;45.5818904;9.270215;shop;windows;;osm_node
osm:node_2405939465;Venus;45.581836;9.269987;shop;car;;osm_node
osm:node_2405943073;Bullonificio;45.5816243;9.2698132;amenity;cafe;;osm_node
osm:node_2405943074;Oasi del celiaco;45.5815244;9.2698959;shop;convenience;;osm_node
osm:node_2405943075;Prestige;45.5814542;9.27006;shop;hairdresser;;osm_node
osm:node_2405943076;Cerchiara;45.5815172;9.2703344;office;estate_agent;;osm_node
osm:node_2405943077;Alleanza;45.5817495;9.2696946;office;insurance;;osm_node
osm:node_2405961220;Fonenet;45.5812667;9.270227;shop;mobile_phone;;osm_node
osm:node_2405961226;Studio MonikaPic;45.5811521;9.270327;craft;photographer;;osm_node
osm:node_2405961245;Scam Viaggi;45.5809539;9.2704205;shop;travel_agency;;osm_node
osm:node_2406003495;Pizzeria Artisti;45.5912244;9.2701027;amenity;restaurant;;osm_node
osm:node_2406010815;Glamour;45.5913688;9.2702261;shop;hairdresser;;osm_node
osm:node_2406010818;Dottoressa Mirna Cremona;45.5916542;9.2700061;amenity;doctors;;osm_node
osm:node_2406010819;Gilberti Casa;45.5918795;9.2699086;shop;household;;osm_node
osm:node_2406010820;Caffè Dante;45.5915867;9.2700573;amenity;cafe;;osm_node
osm:node_2406025851;Mi Cantino Caffè;45.5880762;9.2723132;amenity;pub;;osm_node
osm:node_2406025855;CISL Monza e Brianza;45.5891765;9.271248;office;labor_union;yes;osm_node
osm:node_2406030640;La Lombarda;45.5864733;9.2733539;office;estate_agent;;osm_node
osm:node_2406746230;Fontana delle Rane;45.5846164;9.2749661;amenity;fountain;;osm_node
osm:node_2406856545;Linea Duomo;45.583964;9.2752488;shop;clothes;;osm_node
osm:node_2407169993;Comunità dei Padri Barnabiti;45.5869542;9.2770206;amenity;monastery;;osm_node
osm:node_2411131146;Farmacia Comunale n. 2;45.5953796;9.2581156;amenity;pharmacy;;osm_node
osm:node_2411149857;Farmacia Comunale n. 3;45.5900061;9.296206;amenity;pharmacy;limited;osm_node
osm:node_2411156694;Farmacia Comunale n. 4;45.57066;9.3087944;amenity;pharmacy;;osm_node
osm:node_2411174790;Farmacia Comunale n. 8;45.5642326;9.2650166;amenity;pharmacy;yes;osm_node
osm:node_2411178874;Farmacia Comunale n. 5;45.5612048;9.2569286;amenity;pharmacy;;osm_node
osm:node_2411182847;Farmacia Comunale n. 9;45.581273;9.2902096;amenity;pharmacy;;osm_node
osm:node_2411188914;Farmacia Comunale n. 7;45.5835891;9.2650924;amenity;pharmacy;;osm_node
osm:node_2411191415;Farmacia Zecca;45.5962631;9.2665093;amenity;pharmacy;;osm_node
osm:node_2413522810;Il Pollino;45.5729546;9.246436;amenity;restaurant;;osm_node
osm:node_2417631556;Giramondo Monza;45.5818126;9.2741203;shop;travel_agency;no;osm_node
osm:node_2417634812;Vanity Coiffeur;45.5822934;9.2800533;shop;hairdresser;;osm_node
osm:node_2417641358;Stefano Conte;45.583427;9.2778866;shop;hairdresser;;osm_node
osm:node_2417644718;The Natural Spa;45.5825446;9.2791082;shop;beauty;;osm_node
osm:node_2417644740;Osteopata Biraschi;45.5829539;9.2792557;amenity;doctors;;osm_node
osm:node_2417653226;Osteria Visconti;45.5829241;9.280882;amenity;restaurant;;osm_node
osm:node_2417673877;Casa delle Aste;45.5783733;9.279623;office;company;;osm_node
osm:node_2417673891;CGIL Monza e Brianza;45.5794885;9.2800909;office;labor_union;;osm_node
osm:node_2417673912;Utensileria Monzese;45.5792349;9.2787823;office;company;;osm_node
osm:node_2417673920;Biemmebi;45.5791151;9.2784384;office;company;;osm_node
osm:node_2417673955;New Crazy Colors;45.5802912;9.2795067;office;company;;osm_node
osm:node_2417696883;Santino Moto;45.5784635;9.2810672;shop;motorcycle;;osm_node
osm:node_2417696960;Autofficina Gentile;45.5807615;9.2812389;shop;car_repair;;osm_node
osm:node_2417893316;Quanto Basta;45.5832683;9.2792469;amenity;cafe;limited;osm_node
osm:node_2417929199;Vista Monza;45.5841778;9.2754657;shop;optician;;osm_node
osm:node_2417944502;Kartika;45.5824082;9.2747839;shop;clothes;;osm_node
osm:node_2417944503;Spalto Dieci;45.5823601;9.2763407;amenity;restaurant;;osm_node
osm:node_2417961625;Vineria dei Tintori;45.5842075;9.2781056;shop;wine;;osm_node
osm:node_2417961628;Deutsche Bank;45.5843235;9.2798271;amenity;bank;;osm_node
osm:node_2417961637;Le Spose di Giò;45.5818407;9.2732929;shop;clothes;;osm_node
osm:node_2418772688;Crai;45.5775159;9.2984405;shop;supermarket;;osm_node
osm:node_2418807858;Sigma;45.6018375;9.2650207;shop;supermarket;;osm_node
osm:node_2418974122;Infinito C;45.5843902;9.271784;shop;boutique;;osm_node
osm:node_2418974130;The Flat - bistrot;45.5841904;9.2718656;amenity;restaurant;;osm_node
osm:node_2418980902;I Paperi;45.5844884;9.2721477;shop;shoes;;osm_node
osm:node_2418980924;Saudade;45.5844023;9.270878;shop;clothes;;osm_node
osm:node_2418980942;La Cucina di Nadia;45.5844805;9.2720745;shop;household;;osm_node
osm:node_2418987555;Antonio Pirovano Onoranze Funebri;45.5842959;9.2728468;shop;funeral_directors;;osm_node
osm:node_2418994434;Copisteria del Tribunale;45.5847298;9.2775916;shop;copyshop;;osm_node
osm:node_2419924649;Unione Commercianti Monza;45.5860144;9.2765921;office;association;;osm_node
osm:node_2419924650;Bar On Off;45.5860448;9.2760495;amenity;cafe;;osm_node
osm:node_2419931355;Touring Club Italiano;45.5871674;9.2763027;shop;travel_agency;yes;osm_node
osm:node_2419931357;L’ Angolino Casa;45.5870701;9.2761882;shop;gift;no;osm_node
osm:node_2420741105;Il Guscio;45.5913995;9.2678835;amenity;restaurant;;osm_node
osm:node_2420749004;Camiceria di Como;45.5869905;9.2698949;shop;clothes;;osm_node
osm:node_2420749008;Centro Benessere;45.5869454;9.2698281;shop;beauty;;osm_node
osm:node_2420749010;Fra Diavolo;45.587039;9.2705033;amenity;restaurant;;osm_node
osm:node_2420749012;Kenzu;45.5873715;9.2718808;amenity;restaurant;;osm_node
osm:node_2420755850;Real Immobiliare;45.5881224;9.2759981;office;estate_agent;;osm_node
osm:node_2420927991;Liceo Artistico Nanni Valentini;45.5915239;9.2738839;amenity;school;;osm_node
osm:node_2425674121;Binario 7;45.5772568;9.2747265;amenity;theatre;limited;osm_node
osm:node_2429241241;Frimar serramenti;45.5781282;9.2719864;craft;window_construction;;osm_node
osm:node_2429244433;Piadineria Bel e Bun;45.581785;9.2735336;amenity;fast_food;;osm_node
osm:node_2429252346;Il Giornale di Monza;45.5827234;9.2807302;office;newspaper;;osm_node
osm:node_2429252352;Autoscuola Quattrocchi;45.5837729;9.2813309;amenity;driving_school;;osm_node
osm:node_2429252358;Non Solo Sole;45.5833975;9.2810975;shop;beauty;;osm_node
osm:node_2429252363;Bar Visconti;45.5832943;9.2810466;amenity;cafe;;osm_node
osm:node_2429252368;Fava e Pinto;45.5824751;9.2806548;shop;bathroom_furnishing;;osm_node
osm:node_2429255633;Ivanoe;45.5872381;9.2770554;shop;hairdresser;;osm_node
osm:node_2429262452;Norgghi;45.5841274;9.2815544;shop;clothes;;osm_node
osm:node_2429275749;Ripara Monza;45.5857487;9.2818331;shop;repair;;osm_node
osm:node_2429275752;Ixo Parrucchieri;45.5851433;9.2834391;shop;hairdresser;;osm_node
osm:node_2429275758;Bassi Immobiliare;45.5855277;9.2815408;office;estate_agent;;osm_node
osm:node_2429282539;Biblioteca Parrocchiale Robbiati;45.5861073;9.2816741;amenity;library;;osm_node
osm:node_2429282544;Hostaria L'Angolo del Beato;45.5862151;9.2809876;amenity;restaurant;;osm_node
osm:node_2429282574;Asilo Nido Marameo;45.5848167;9.2832646;amenity;kindergarten;;osm_node
osm:node_2429282580;Acconciature Annamaria;45.5858936;9.2817879;shop;hairdresser;;osm_node
osm:node_2429282587;Casa del Cane e Acquario;45.5859888;9.2818643;amenity;veterinary;;osm_node
osm:node_2429289786;L'Angolo del Buongustaio;45.5859179;9.2820348;shop;deli;;osm_node
osm:node_2429289787;Glass Cafe;45.5860392;9.2821911;amenity;cafe;;osm_node
osm:node_2429294121;La Pentola Vegana;45.5865624;9.2831038;amenity;restaurant;;osm_node
osm:node_2429294125;Bazar;45.5865087;9.2827737;shop;clothes;;osm_node
osm:node_2429294128;Biblioteca San Gerardo;45.5861195;9.2827095;amenity;library;;osm_node
osm:node_2429294129;Oreficeria Strippoli;45.5864798;9.2829858;shop;jewelry;;osm_node
osm:node_2429294130;Centro Civico di Via Lecco;45.5862113;9.2827015;amenity;community_centre;;osm_node
osm:node_2429303511;La Casa delle Meraviglie;45.5867435;9.2833192;shop;gift;;osm_node
osm:node_2429303516;Phase Rem;45.5869699;9.2836211;shop;furniture;;osm_node
osm:node_2429303518;Montecarlo;45.5873105;9.2841685;amenity;cafe;;osm_node
osm:node_2429309974;Bulk Wine;45.5884526;9.2852898;shop;wine;;osm_node
osm:node_2429310000;Coop;45.5878379;9.2850217;shop;supermarket;yes;osm_node
osm:node_2429317188;Credem;45.5891547;9.2839889;amenity;bank;;osm_node
osm:node_2429317195;SC Self Cart;45.5896201;9.2826452;shop;department_store;;osm_node
osm:node_2429328193;Autoricambi Monza;45.5890344;9.2812048;shop;car_repair;;osm_node
osm:node_2429963884;Fondazione Gaiani;45.5911249;9.2780939;office;foundation;;osm_node
osm:node_2429988716;Colore Marchesi;45.5862512;9.2698504;shop;paint;;osm_node
osm:node_2429988735;Vivere e Viaggiare;45.5864178;9.269949;shop;travel_agency;;osm_node
osm:node_2429992939;Couture;45.5849757;9.2728153;shop;hairdresser;;osm_node
osm:node_2429992940;Banca Generali;45.5851014;9.2729012;amenity;bank;;osm_node
osm:node_2429992944;Centro Analisi Monza;45.5848329;9.2710451;amenity;clinic;;osm_node
osm:node_2429992945;Cattolica Assicurazioni;45.5850146;9.2712808;office;insurance;;osm_node
osm:node_2430003458;Foto Torchio;45.5847955;9.2707447;craft;photographer;;osm_node
osm:node_2430003462;Lavatec;45.5844138;9.2706;shop;laundry;;osm_node
osm:node_2430003463;Crystal Bar;45.584396;9.2703779;amenity;cafe;;osm_node
osm:node_2430003464;Caffè Segantini;45.5842056;9.2705963;amenity;cafe;;osm_node
osm:node_2430012947;Fototecnica Casati;45.5848516;9.2729949;craft;photographer;;osm_node
osm:node_2430012948;Cafè Royal;45.5835508;9.2713205;amenity;cafe;;osm_node
osm:node_2430012952;Grimaldi Immobiliare;45.5848457;9.2704921;office;estate_agent;;osm_node
osm:node_2430012953;Assicurazioni Generali;45.5847637;9.2705365;office;insurance;;osm_node
osm:node_2430012954;Grand Prix Bar;45.5825327;9.2714912;amenity;cafe;;osm_node
osm:node_2430012956;Dorelanbed;45.5835168;9.2710931;shop;furniture;;osm_node
osm:node_2430028388;le Menegatto;45.5842524;9.2710394;shop;shoes;;osm_node
osm:node_2430028390;Punto G;45.5837644;9.2705406;amenity;restaurant;;osm_node
osm:node_2430028399;BCC di Lesmo;45.5833139;9.2711965;amenity;bank;;osm_node
osm:node_2430028400;Ristorante Il Moro;45.5826644;9.2710366;amenity;restaurant;;osm_node
osm:node_2435634866;Grotta Azzurra;45.5851218;9.2769815;amenity;restaurant;;osm_node
osm:node_2435649151;CMP;45.5852289;9.2753736;shop;sports;;osm_node
osm:node_2435666210;Wycon Cosmetics;45.5836645;9.2742432;shop;cosmetics;limited;osm_node
osm:node_2435688782;Ryo;45.5786525;9.2755864;amenity;restaurant;;osm_node
osm:node_2435722570;Monza Soccorso;45.5818252;9.2843791;office;association;;osm_node
osm:node_2435722586;Virginia Travel;45.5815915;9.2845804;shop;travel_agency;;osm_node
osm:node_2435744140;Judo Club Ronin;45.5822062;9.2863409;leisure;fitness_centre;;osm_node
osm:node_2435752148;Stop and Go;45.5830228;9.288385;amenity;restaurant;;osm_node
osm:node_2435752152;Clima Service;45.5833342;9.2869763;craft;hvac;;osm_node
osm:node_2435752154;Tortora's Pub;45.5830775;9.287976;amenity;pub;;osm_node
osm:node_2435752170;Save Coppe;45.5832972;9.2873631;craft;metal_construction;;osm_node
osm:node_2435763096;Bar La Fenice;45.5829796;9.2889735;amenity;cafe;;osm_node
osm:node_2435763111;Estro;45.5831506;9.288476;shop;hairdresser;;osm_node
osm:node_2435763124;Lavanderia 5 stelle;45.583102;9.2888404;shop;laundry;;osm_node
osm:node_2435773734;La Dispensa del Celiaco;45.5830089;9.2896273;shop;convenience;;osm_node
osm:node_2435773736;Antares Dance Line;45.5828447;9.2899555;shop;shoes;limited;osm_node
osm:node_2435781348;Cafe Noir;45.5822346;9.2896873;amenity;cafe;;osm_node
osm:node_2435781353;Joe Scarpetta;45.5827396;9.2899394;amenity;restaurant;yes;osm_node
osm:node_2435781354;Glap vision;45.5820301;9.2899984;shop;optician;;osm_node
osm:node_2435781359;Carige;45.5824336;9.2898616;amenity;bank;;osm_node
osm:node_2435781375;Centro Medicina Biologica - CEMBIO;45.5819493;9.2896041;amenity;clinic;;osm_node
osm:node_2435791199;Eroma Cafe;45.5813475;9.2896152;amenity;cafe;;osm_node
osm:node_2435791200;Sala Spose;45.5813955;9.2898455;shop;clothes;;osm_node
osm:node_2435791202;Jan Sport;45.5815082;9.2898589;shop;shoes;;osm_node
osm:node_2435803911;Tecnocasa;45.5814018;9.2889155;office;estate_agent;;osm_node
osm:node_2435803916;Il Tucano;45.5814168;9.2887211;amenity;ice_cream;;osm_node
osm:node_2435803921;Profumeria Ambra;45.5813573;9.2894889;shop;chemist;;osm_node
osm:node_2435803922;Frutteto Umberto;45.5814092;9.28882;shop;greengrocer;;osm_node
osm:node_2435817709;Centro culturale del Bangladesh;45.5820919;9.2885259;leisure;club;;osm_node
osm:node_2435817731;Estetica Profili;45.5814218;9.2881531;shop;beauty;;osm_node
osm:node_2435817844;Sala Luciana;45.5820112;9.2885044;shop;beauty;;osm_node
osm:node_2435824048;Car Point;45.5825256;9.2878527;shop;car_repair;;osm_node
osm:node_2435824050;Edil Vibandi;45.5821199;9.2878107;office;company;;osm_node
osm:node_2435824056;Il Fornaio;45.581477;9.2874837;shop;bakery;;osm_node
osm:node_2435824060;Oreficeria Viganò;45.5813668;9.2872269;shop;jewelry;;osm_node
osm:node_2435828144;Bianco Blu;45.5815758;9.2870587;shop;clothes;;osm_node
osm:node_2435828148;Acconciature Angelo;45.5815644;9.2864229;shop;hairdresser;;osm_node
osm:node_2435828157;Il Calzolaio;45.58156;9.2864735;craft;shoemaker;;osm_node
osm:node_2439296652;Vicolo 11;45.5845005;9.2774076;shop;clothes;;osm_node
osm:node_2439296660;Bigiotteria Ideale;45.5844945;9.2771068;shop;jewelry;;osm_node
osm:node_2439306374;Monguzzi;45.583943;9.2782015;shop;shoes;yes;osm_node
osm:node_2439306378;Beauty Concept;45.5838842;9.278865;shop;beauty;;osm_node
osm:node_2439311866;Loma Monza;45.5840236;9.2796767;shop;stationery;;osm_node
osm:node_2439311867;Ottica Foppa;45.5840218;9.2788848;shop;optician;;osm_node
osm:node_2439331314;Bros Cafè;45.5841419;9.2798386;amenity;cafe;;osm_node
osm:node_2439331346;Puntocasa;45.5845381;9.2801539;office;estate_agent;;osm_node
osm:node_2439331356;Frida's;45.5843402;9.280142;shop;florist;;osm_node
osm:node_2440694430;Antica Merceria Brumana;45.5854813;9.2729487;shop;fabric;;osm_node
osm:node_2440703838;.edilintesa;45.5856812;9.2729508;office;estate_agent;;osm_node
osm:node_2440703839;Fineco;45.5859103;9.2731129;amenity;bank;;osm_node
osm:node_2440703840;Shop Privée;45.5858184;9.273465;shop;shoes;;osm_node
osm:node_2441524211;Lingxian Keji;45.5799854;9.2728543;shop;mobile_phone;;osm_node
osm:node_2441591753;Sapore di Mare;45.5776312;9.2840247;shop;seafood;;osm_node
osm:node_2444963267;Napoleone Erba;45.5771236;9.2713132;shop;clothes;;osm_node
osm:node_2444984766;La Contadina;45.5755509;9.2700041;shop;cheese;;osm_node
osm:node_2444984770;Caffe Dolce Amaro;45.5758213;9.2701704;amenity;cafe;;osm_node
osm:node_2444997636;Mail Boxes Etc;45.5757124;9.2700792;amenity;post_office;;osm_node
osm:node_2444997640;Synergie;45.5758457;9.269583;office;employment_agency;;osm_node
osm:node_2445012098;Scuola d'Infanzia Giotto;45.5765289;9.268824;amenity;kindergarten;;osm_node
osm:node_2445019685;'Mbriana;45.5770806;9.2686678;amenity;restaurant;;osm_node
osm:node_2445019689;Ortofrutta Fratelli Bendin;45.5771554;9.269558;shop;greengrocer;;osm_node
osm:node_2445019691;Bottigelli;45.5770396;9.2693443;shop;furniture;;osm_node
osm:node_2445019692;Hairmony;45.5770847;9.2699859;shop;hairdresser;;osm_node
osm:node_2445019696;La Pià;45.5771242;9.2697526;amenity;fast_food;;osm_node
osm:node_2445019697;Bar New Day;45.5761314;9.2683374;amenity;cafe;;osm_node
osm:node_2445032063;Unione Artigiani di Monza e Brianza;45.5773512;9.2694355;office;association;;osm_node
osm:node_2445032064;Tiffany;45.5771973;9.2694006;amenity;cafe;;osm_node
osm:node_2445032070;Palestra San Carlo;45.5778207;9.2694707;leisure;fitness_centre;;osm_node
osm:node_2445036099;Il Baretto;45.5784882;9.2699896;amenity;cafe;limited;osm_node
osm:node_2445036102;Minimarket;45.5788006;9.269634;shop;convenience;yes;osm_node
osm:node_2448167769;Pokestorie;45.5838624;9.2823348;amenity;fast_food;;osm_node
osm:node_2448173939;Hemingway & Co.;45.5837834;9.2827351;shop;books;;osm_node
osm:node_2448177661;Bove Lover;45.5837118;9.2838874;amenity;restaurant;;osm_node
osm:node_2450544888;Bar Il Sole;45.5893751;9.2865995;amenity;cafe;;osm_node
osm:node_2453263039;Subliminal Tattoo;45.5855702;9.2735594;shop;tattoo;;osm_node
osm:node_2453305044;Lady'n'move;45.5861629;9.2693228;leisure;fitness_centre;;osm_node
osm:node_2453313857;Mutti;45.5867134;9.2698794;shop;clothes;;osm_node
osm:node_2453313861;Atmosfere;45.5867379;9.2697896;shop;furniture;;osm_node
osm:node_2453318087;Giusy;45.5864316;9.2694582;shop;hairdresser;;osm_node
osm:node_2453318088;My Thai;45.5866227;9.2695078;amenity;restaurant;;osm_node
osm:node_2453325866;Le Goloserie;45.587047;9.2683572;shop;pastry;;osm_node
osm:node_2453329110;Le Cascine;45.5870157;9.2685316;amenity;cafe;;osm_node
osm:node_2453329115;Interni Miotto;45.58692;9.2689876;shop;furniture;;osm_node
osm:node_2453329120;Pizza Cris;45.5868583;9.2692553;amenity;fast_food;;osm_node
osm:node_2453329133;Bellini Hair Design;45.5869041;9.2696628;shop;hairdresser;;osm_node
osm:node_2453336873;Solo affitti;45.5871375;9.2686437;office;estate_agent;;osm_node
osm:node_2453336889;Oreficeria Mario Villa;45.5870753;9.2689346;shop;jewelry;;osm_node
osm:node_2453336900;Merceria Villa;45.5870964;9.268854;shop;clothes;no;osm_node
osm:node_2453344265;La Salumeria;45.5872464;9.2682788;shop;butcher;;osm_node
osm:node_2453344267;Farmacia Moretti;45.5873054;9.2680685;amenity;pharmacy;;osm_node
osm:node_2453355671;Barcode;45.5874041;9.267799;amenity;cafe;;osm_node
osm:node_2453375020;Autofficina Galbiati;45.5879481;9.2682147;shop;car_repair;;osm_node
osm:node_2453375048;Erika & Luis Piazza;45.5875294;9.2674894;shop;hairdresser;;osm_node
osm:node_2453391431;Monza 3;45.5888284;9.2688587;amenity;post_office;;osm_node
osm:node_2453391458;Otticamaggi;45.5885411;9.269532;shop;optician;;osm_node
osm:node_2453404967;I Duls de San Bioeus;45.5873435;9.2703286;shop;pastry;;osm_node
osm:node_2453404990;Aliya Lanka;45.5880812;9.2696259;amenity;restaurant;;osm_node
osm:node_2453405018;Centro Estetico Viviane;45.5878204;9.2698163;shop;beauty;;osm_node
osm:node_2453411056;Datasys;45.5869381;9.2655248;office;company;;osm_node
osm:node_2453443574;Kiki Nails;45.5863807;9.2650658;shop;beauty;;osm_node
osm:node_2453443586;Bar Fortuna;45.5865494;9.2649232;amenity;cafe;;osm_node
osm:node_2453468668;Palestra Freesport;45.5840588;9.2648354;leisure;fitness_centre;;osm_node
osm:node_2453468686;Paprika;45.5841295;9.2651375;amenity;restaurant;;osm_node
osm:node_2453471010;Air Bar;45.5842502;9.2678771;amenity;cafe;;osm_node
osm:node_2453471012;PlayTime;45.5842893;9.2679795;shop;games;;osm_node
osm:node_2453471015;Aris;45.5842953;9.2684376;shop;hairdresser;;osm_node
osm:node_2458104975;DemaCar Monza;45.5803728;9.3143171;shop;car;;osm_node
osm:node_2458108287;Burger King;45.5859133;9.3115036;amenity;fast_food;yes;osm_node
osm:node_2464335000;Tendenze;45.5848164;9.2749249;shop;shoes;;osm_node
osm:node_2464378339;Capelli Mania;45.5855119;9.2842194;shop;hairdresser;;osm_node
osm:node_2464378340;U' Bar;45.5853757;9.284038;amenity;cafe;;osm_node
osm:node_2464378341;Buoni come il Pane;45.5851938;9.2835805;amenity;cafe;;osm_node
osm:node_2464378342;Ortofrutta Monza;45.5853089;9.2839446;shop;greengrocer;;osm_node
osm:node_2464378343;Macelleria Roselli;45.5854248;9.2841116;shop;butcher;;osm_node
osm:node_2464378344;Sapori Siciliani;45.5856894;9.2844791;shop;bakery;;osm_node
osm:node_2464385813;Osteria Bacco e Tabacco;45.5860902;9.2850146;amenity;restaurant;;osm_node
osm:node_2464393422;La Reginetta;45.5862028;9.2849494;shop;stationery;;osm_node
osm:node_2464393437;Il Granchio;45.5863071;9.2850882;amenity;restaurant;;osm_node
osm:node_2464407504;Pizzeria Da Andrea;45.5866453;9.2841031;amenity;restaurant;;osm_node
osm:node_2464414488;Tridente;45.5861738;9.2848599;amenity;pub;;osm_node
osm:node_2464414489;Gulliver;45.5864363;9.2844268;amenity;pub;;osm_node
osm:node_2464446626;Calloni Guido;45.5852012;9.2852397;craft;blacksmith;;osm_node
osm:node_2464481907;Mirtillo Club;45.5860216;9.2867481;leisure;fitness_centre;;osm_node
osm:node_2467676924;Loft American Bar;45.5615471;9.2573184;amenity;bar;;osm_node
osm:node_2471431057;Società Alpinisti Monzesi;45.5771795;9.2758842;sport;outdoor;;osm_node
osm:node_2471449111;Palfruit;45.5771305;9.278802;shop;greengrocer;;osm_node
osm:node_2471449123;Trattoria Canon d'Oro;45.5758803;9.280245;amenity;restaurant;;osm_node
osm:node_2471449152;Sport Village Monza;45.5757938;9.2792365;leisure;fitness_centre;;osm_node
osm:node_2471449159;Trattoria della Patata;45.5758539;9.280025;amenity;restaurant;;osm_node
osm:node_2471468294;Autofficina 2P;45.5756718;9.280634;shop;car_repair;;osm_node
osm:node_2471493371;Arcaplanet;45.5738594;9.2835202;shop;pet;;osm_node
osm:node_2471493376;Canile ENPA;45.5750728;9.2827318;amenity;animal_shelter;;osm_node
osm:node_2471500729;Polleria Nostrana;45.5755947;9.2832039;shop;butcher;;osm_node
osm:node_2473700219;Yin Tao;45.5825311;9.2693074;amenity;restaurant;;osm_node
osm:node_2473710008;Monza Evoluzione;45.5832802;9.2682211;shop;car_repair;;osm_node
osm:node_2473722124;Gianni Crippa;45.5836199;9.2668371;shop;electronics;;osm_node
osm:node_2473722127;Lavasecco Raffaella;45.5838847;9.2669708;shop;laundry;;osm_node
osm:node_2473722135;Bar Sempione;45.5838114;9.2665951;amenity;cafe;;osm_node
osm:node_2473726615;Credito Bergamasco;45.5835542;9.2652144;amenity;bank;;osm_node
osm:node_2473726621;Colorificio Stelvio;45.5837824;9.266481;shop;paint;;osm_node
osm:node_2473726628;Kon Tiki;45.5837101;9.2660922;amenity;restaurant;;osm_node
osm:node_2473726630;New Look;45.5836468;9.2657505;shop;hairdresser;;osm_node
osm:node_2473726632;zero3nove;45.5832521;9.2658633;amenity;bar;;osm_node
osm:node_2473742958;La Caveja;45.583056;9.2656516;amenity;fast_food;;osm_node
osm:node_2473754511;Get Fit;45.5830362;9.2657615;leisure;fitness_centre;;osm_node
osm:node_2473754572;Studio Dentistico Abaco;45.5829029;9.265662;amenity;dentist;;osm_node
osm:node_2473790806;Motosalone Cavallotti;45.5810143;9.2667835;shop;motorcycle;;osm_node
osm:node_2473790818;Tomi;45.5809689;9.2665155;amenity;restaurant;;osm_node
osm:node_2473790823;Acconciature Gaetano;45.580988;9.2669739;shop;hairdresser;;osm_node
osm:node_2473790828;Your Shop;45.5810372;9.2672235;shop;department_store;;osm_node
osm:node_2473808111;Autolux;45.5812581;9.2675533;shop;car_repair;;osm_node
osm:node_2473808116;Roche Bobois Paris;45.5811646;9.2673172;shop;furniture;;osm_node
osm:node_2473808120;Autoscuola Top Drive;45.5815119;9.268551;amenity;driving_school;;osm_node
osm:node_2473808141;Parafarmacia Lo Speziale;45.5815625;9.2687254;amenity;pharmacy;;osm_node
osm:node_2473808163;Beauty Line;45.5814499;9.2683123;shop;hairdresser;;osm_node
osm:node_2473818195;Autocarrozzeria Azzaroni;45.5816011;9.2690672;shop;car_repair;;osm_node
osm:node_2481593046;Canadian Lions Bridge;45.5843281;9.2770763;shop;clothes;;osm_node
osm:node_2483704164;Sangalli Srl;45.5632893;9.2808837;office;company;;osm_node
osm:node_2501498066;Salone Parco;45.5945648;9.2666743;shop;hairdresser;;osm_node
osm:node_2501498068;La Pergola;45.5947037;9.2666368;amenity;restaurant;;osm_node
osm:node_2501503483;Al Anbiq;45.5963975;9.2689007;amenity;restaurant;;osm_node
osm:node_2501516098;Papilla Monza;45.5843504;9.2820857;amenity;bar;;osm_node
osm:node_2501591246;Esso;45.5698156;9.2941355;amenity;fuel;;osm_node
osm:node_2501591300;Toyota Hybrid village;45.5703885;9.2959423;shop;car;;osm_node
osm:node_2501609977;Fratelli Molteni Spa;45.5766939;9.3094432;office;company;;osm_node
osm:node_2505263134;Leo Galleries;45.5841614;9.2810124;shop;art;;osm_node
osm:node_2505267167;Voyageur;45.5797232;9.2691938;amenity;restaurant;;osm_node
osm:node_2505267177;Gelato Gourmet;45.5790158;9.2698813;amenity;ice_cream;;osm_node
osm:node_2505279805;Padre Pio;45.5805285;9.270779;historic;memorial;;osm_node
osm:node_2505279811;Amici Pelosi;45.579592;9.2693344;shop;pet;;osm_node
osm:node_2505279813;Ambulatorio veterinario dir. san. dott.ssa Valeria Costa;45.5795504;9.2693574;amenity;veterinary;;osm_node
osm:node_2505285060;Lavanderia LavaBene;45.5800201;9.270238;shop;laundry;;osm_node
osm:node_2505285061;Liceo delle Scienze Applicate Pino Hensemberger;45.5801549;9.2700226;amenity;school;;osm_node
osm:node_2505285062;Osteria Magenta 7;45.5798447;9.2695653;amenity;restaurant;;osm_node
osm:node_2505285064;Trattoria Loro di Napoli;45.5800801;9.2704687;amenity;restaurant;;osm_node
osm:node_2505291178;La Svizzera;45.5794363;9.2676392;shop;laundry;;osm_node
osm:node_2505291189;Optima;45.5796377;9.2688463;office;estate_agent;;osm_node
osm:node_2505312320;La Tipografia Monzese;45.5792805;9.2668533;shop;typography;;osm_node
osm:node_2505312321;Lait;45.579327;9.2669701;amenity;restaurant;;osm_node
osm:node_2505312326;Era Pizza;45.579373;9.2671719;amenity;restaurant;;osm_node
osm:node_2505318158;Bar Meeting;45.5806284;9.2667165;amenity;cafe;;osm_node
osm:node_2505318160;Studio Dentistico Dott. Caretta;45.5801627;9.2669228;amenity;dentist;;osm_node
osm:node_2505318166;La Fondiaria;45.5797911;9.2674649;office;insurance;;osm_node
osm:node_2505323589;Anteprima;45.5799458;9.2671447;shop;hairdresser;;osm_node
osm:node_2505324519;Istituto Alessandro Volta;45.5785104;9.2695318;amenity;school;;osm_node
osm:node_2505327068;Sartoria Aiello;45.5782489;9.2685614;craft;tailor;;osm_node
osm:node_2505327069;Pelliccerie Barni;45.5782104;9.2684087;shop;clothes;;osm_node
osm:node_2505327072;Aura Center;45.578385;9.2691919;shop;beauty;;osm_node
osm:node_2505327073;Palestra La Baita;45.5781423;9.2690356;leisure;fitness_centre;;osm_node
osm:node_2505333816;Carabinieri Comando provinciale Monza;45.5775814;9.2684302;amenity;police;;osm_node
osm:node_2505341104;Pizzeria Pugliese;45.5780638;9.268044;amenity;restaurant;;osm_node
osm:node_2505341124;Cinema Teatro San Carlo;45.5776489;9.2681917;amenity;theatre;;osm_node
osm:node_2505341131;Milos Cafè;45.5781597;9.2682237;amenity;cafe;;osm_node
osm:node_2505349076;Risuolatrice Italia;45.5772509;9.2685402;craft;shoemaker;;osm_node
osm:node_2505349078;Con ... tatto;45.5773543;9.2684999;shop;massage;;osm_node
osm:node_2508764586;Patrizia Gi;45.577228;9.2670526;shop;hairdresser;;osm_node
osm:node_2516366452;Subdued;45.5842388;9.2775566;shop;clothes;;osm_node
osm:node_2517413925;Edicola Emme Elle;45.5587782;9.2627927;shop;newsagent;;osm_node
osm:node_2517424767;Diamoci un taglio;45.5596235;9.2633023;shop;hairdresser;;osm_node
osm:node_2518638159;Vanni Manutenzioni Edili;45.5966464;9.2947959;office;company;;osm_node
osm:node_2518657986;I Creatori d'Immagine;45.5939223;9.2925428;shop;hairdresser;;osm_node
osm:node_2518658031;Pasticceria Caffetteria Viganò;45.5938154;9.2924087;amenity;cafe;;osm_node
osm:node_2518658037;Pinuccia a mare;45.5932701;9.2917597;amenity;restaurant;;osm_node
osm:node_2518658041;Ortofrutticola Monzese;45.593501;9.2924738;shop;greengrocer;;osm_node
osm:node_2518667885;Birreria La Baita;45.5922357;9.2904593;amenity;pub;;osm_node
osm:node_2518668009;Play English;45.5920982;9.2929857;amenity;language_school;;osm_node
osm:node_2525338580;La Villetta;45.5906564;9.2572021;amenity;restaurant;;osm_node
osm:node_2525372006;Montecarlo 33;45.5818115;9.2734215;shop;jewelry;;osm_node
osm:node_2525372850;Polizia Locale;45.57651;9.266925;amenity;police;;osm_node
osm:node_2525425031;Mobilmoney;45.5667005;9.2439548;shop;furniture;;osm_node
osm:node_2526538965;CNA Sicurezza;45.5648394;9.2631147;office;company;;osm_node
osm:node_2526546502;Politerapico Monza;45.5661674;9.2617576;amenity;clinic;;osm_node
osm:node_2526569940;Fratelli Mombelli;45.5662291;9.2579524;shop;car;;osm_node
osm:node_2526587311;B&D Elettrauto;45.5631015;9.2653362;shop;car_repair;;osm_node
osm:node_2526593854;Centro Anziani Franco Casati;45.563314;9.2648504;amenity;social_facility;yes;osm_node
osm:node_2538518531;SNAI;45.5750116;9.2699581;shop;bookmaker;;osm_node
osm:node_2538518554;Euronics;45.5751983;9.2700897;shop;electronics;;osm_node
osm:node_2538533975;Chantik;45.5748218;9.2703741;shop;antiques;;osm_node
osm:node_2538533976;Bar Campari;45.5745319;9.2695109;shop;tobacco;;osm_node
osm:node_2538549346;Macelleria Vergani;45.5762003;9.2681249;shop;butcher;;osm_node
osm:node_2538549368;Ungaro;45.5762175;9.2680465;shop;bakery;;osm_node
osm:node_2538571470;Mario Crippa;45.5741809;9.2694867;amenity;veterinary;;osm_node
osm:node_2538594062;Targa Monza;45.574072;9.2687033;shop;car;;osm_node
osm:node_2538594094;Farmacia Mandelli;45.5734562;9.2685076;amenity;pharmacy;yes;osm_node
osm:node_2538594116;IWBank;45.573811;9.268902;amenity;bank;;osm_node
osm:node_2538629551;Le dolcezze di Mister C;45.5736983;9.2684085;shop;pastry;yes;osm_node
osm:node_2538629556;Paper Moon;45.5744847;9.2696803;shop;stationery;;osm_node
osm:node_2538629563;Ravasi;45.5745336;9.2697068;shop;clothes;;osm_node
osm:node_2538629566;Fascino Fusion;45.5735407;9.2682476;amenity;restaurant;yes;osm_node
osm:node_2538629569;"Le Dolcezze di Mister ""C""";45.5738054;9.2685024;shop;pastry;;osm_node
osm:node_2538647099;ANPI Monza e Brianza;45.5732966;9.2687436;leisure;club;;osm_node
osm:node_2538669441;Alestudio;45.573169;9.2689315;shop;beauty;;osm_node
osm:node_2538687397;La Chiave;45.5730149;9.2682583;craft;locksmith;;osm_node
osm:node_2538687399;Banca Sella;45.5731632;9.2683575;amenity;bank;;osm_node
osm:node_2538709003;Ars Medica;45.5727877;9.2678962;amenity;dentist;;osm_node
osm:node_2545595395;Nove25;45.583916;9.2785283;shop;jewelry;limited;osm_node
osm:node_2545595398;Maggi;45.5839267;9.2784228;shop;bag;limited;osm_node
osm:node_2545595401;Watch M Diamond;45.5839054;9.278681;shop;jewelry;limited;osm_node
osm:node_2545619277;Dive;45.5841165;9.278052;amenity;bar;;osm_node
osm:node_2545619282;MiAngel;45.5840752;9.2782904;shop;clothes;limited;osm_node
osm:node_2545627146;Natural blond;45.5840168;9.278965;shop;hairdresser;limited;osm_node
osm:node_2545654719;Santamaria;45.5841832;9.279118;shop;gift;;osm_node
osm:node_2545654734;Tabaccheria del Corso;45.5839532;9.2795782;shop;tobacco;;osm_node
osm:node_2545679431;Compostella;45.5840733;9.279425;shop;knives;;osm_node
osm:node_2545679441;Otoacustica Lombarda;45.5842327;9.2797048;shop;hearing_aids;;osm_node
osm:node_2545745096;Margherita;45.5845858;9.2805059;shop;clothes;;osm_node
osm:node_2545745101;Astor;45.5849585;9.2807273;amenity;cafe;;osm_node
osm:node_2545745107;Galleria del Vento;45.5848459;9.2805959;shop;interior_design;;osm_node
osm:node_2545754445;Per Te;45.5850231;9.2810316;amenity;restaurant;;osm_node
osm:node_2558517283;Nautiscuola Casiraghi;45.5804289;9.2856924;amenity;driving_school;;osm_node
osm:node_2558517285;Elenoire;45.5805078;9.2857085;shop;hairdresser;;osm_node
osm:node_2558517287;K2;45.5805247;9.2854966;amenity;cafe;;osm_node
osm:node_2558524620;Amadeus;45.5804927;9.2860359;amenity;restaurant;;osm_node
osm:node_2558541450;Forno Moderno;45.5795072;9.2895065;shop;bakery;;osm_node
osm:node_2558541455;Caffetteria Ferrari;45.5793738;9.2894633;amenity;cafe;;osm_node
osm:node_2559963258;Monza sinistri e risarcimenti;45.5885819;9.2895691;office;insurance;;osm_node
osm:node_2559963275;Birreria del Ponte;45.5885574;9.2894458;amenity;pub;;osm_node
osm:node_2559963281;C53;45.588458;9.2889147;amenity;restaurant;;osm_node
osm:node_2559969273;Il Vinivendolo;45.5877771;9.2894174;shop;wine;;osm_node
osm:node_2559969305;H-Demia Danza;45.5879456;9.2898534;leisure;dance;;osm_node
osm:node_2569560932;Beata Vergine dell'Aiuto;45.5854467;9.278041;historic;wayside_shrine;;osm_node
osm:node_2569666068;Monza 1;45.5928975;9.3017067;amenity;post_office;yes;osm_node
osm:node_2569666075;Monza 4;45.5618508;9.2698989;amenity;post_office;yes;osm_node
osm:node_2569666086;Monza 5;45.5810466;9.2908551;amenity;post_office;;osm_node
osm:node_2569666096;Monza 7;45.5777955;9.2491653;amenity;post_office;;osm_node
osm:node_2589205796;Tabaccheria Ricevitoria;45.5778733;9.2729707;shop;tobacco;;osm_node
osm:node_2589226903;Chimera;45.5843752;9.2742827;tourism;artwork;;osm_node
osm:node_2589259309;Rewind Cafè;45.5800338;9.2729006;amenity;cafe;;osm_node
osm:node_2630381241;Autofficina Andrea;45.5791851;9.2868513;shop;car_repair;;osm_node
osm:node_2630491731;BPM;45.5771536;9.2853137;amenity;bank;;osm_node
osm:node_2630491753;Bar Verderio;45.5775458;9.2844217;amenity;cafe;yes;osm_node
osm:node_2630491770;Cartoleria Lo Scarabocchio;45.577419;9.2851003;shop;stationery;;osm_node
osm:node_2630491788;Euroverde Bio;45.576548;9.2886483;shop;convenience;;osm_node
osm:node_2630491804;Galapagos;45.5775286;9.2845231;shop;pet;;osm_node
osm:node_2630491821;Klimatizzando;45.5772247;9.2862038;craft;hvac;;osm_node
osm:node_2630491825;Non Solo Bar ...;45.5771837;9.2864274;amenity;cafe;yes;osm_node
osm:node_2630492080;Quattroruote;45.5773098;9.2857696;shop;car_parts;;osm_node
osm:node_2630492093;Tendenza;45.5772035;9.2863232;shop;hairdresser;;osm_node
osm:node_2635423250;Casa Melo e Ciccio;45.5900141;9.2552699;amenity;restaurant;;osm_node
osm:node_2635454731;Bar Arosio;45.5877946;9.2668541;amenity;cafe;;osm_node
osm:node_2635454759;In Divenire;45.5876596;9.2671555;shop;interior_decoration;;osm_node
osm:node_2635454787;ParcoBici;45.5875851;9.2673319;amenity;bicycle_repair_station;;osm_node
osm:node_2635454818;Ravanelli Agostino;45.5878219;9.26679;shop;bakery;;osm_node
osm:node_2635454833;Lavasmacchia;45.5878714;9.2666829;shop;laundry;;osm_node
osm:node_2635454847;Modetia carta;45.5877284;9.2670039;shop;antiques;;osm_node
osm:node_2635491177;Ristorante Felicità;45.5879466;9.2660371;amenity;restaurant;;osm_node
osm:node_2635517204;Brianza Tende;45.5888984;9.2657602;shop;curtain;;osm_node
osm:node_2635517244;Caffetteria Relax;45.5886467;9.2662445;amenity;cafe;;osm_node
osm:node_2635554494;Pescheria Ocean Food;45.5889642;9.2666033;shop;seafood;;osm_node
osm:node_2635564769;Monza Car;45.5896219;9.2670612;shop;car_repair;;osm_node
osm:node_2635610783;Autoscuola Formula 1;45.5905252;9.2674337;amenity;driving_school;;osm_node
osm:node_2635610819;Cafè La Maison;45.5890772;9.2689159;amenity;cafe;;osm_node
osm:node_2635610867;Caddy's;45.5903963;9.2675661;shop;chemist;;osm_node
osm:node_2635610916;Luca;45.5897143;9.2679666;shop;hairdresser;;osm_node
osm:node_2635610960;Matheria Preziosi Dettagli;45.5898019;9.2678879;shop;jewelry;;osm_node
osm:node_2635610983;Mister Michetta;45.5896708;9.2682832;shop;bakery;;osm_node
osm:node_2635611292;Pizzeria Tekkà;45.5904576;9.2675071;amenity;restaurant;;osm_node
osm:node_2635611329;Wine Bar San Biagio;45.5897456;9.268217;amenity;bar;;osm_node
osm:node_2641380004;Basico Srl;45.5876751;9.2723795;amenity;post_office;;osm_node
osm:node_2641380028;Sementi Bambin;45.5879088;9.2728295;shop;garden_centre;;osm_node
osm:node_2641404861;Acconciature Piero;45.5907346;9.2672735;shop;hairdresser;;osm_node
osm:node_2641404862;Bar Volta;45.5911251;9.2669946;amenity;cafe;;osm_node
osm:node_2641404863;Charme;45.5906059;9.267041;shop;hairdresser;;osm_node
osm:node_2641404864;Cicli di Lorenzo;45.5906806;9.2669814;shop;bicycle;;osm_node
osm:node_2641424590;Roger;45.5891941;9.2661475;amenity;restaurant;;osm_node
osm:node_2641424591;Baby Stockeria;45.5891092;9.2659331;shop;clothes;;osm_node
osm:node_2641462755;Asilo Nido San Biagio;45.5885454;9.2652639;amenity;kindergarten;;osm_node
osm:node_2641462769;Caprotti;45.5883653;9.2651158;shop;bed;;osm_node
osm:node_2641462785;Maggiore;45.5875146;9.2658399;amenity;car_rental;;osm_node
osm:node_2641462837;Lavanderia Manzoni;45.5883133;9.2652583;shop;laundry;;osm_node
osm:node_2641462846;Palestra Oratorio di San Biagio;45.5884574;9.2654783;leisure;sports_centre;;osm_node
osm:node_2641462865;Scuola Materna Maria Bambina;45.588335;9.2657075;amenity;kindergarten;;osm_node
osm:node_2641473783;Fior di Montagna;45.5847675;9.2886507;leisure;club;;osm_node
osm:node_2641501119;Bar Amati;45.5827219;9.2908438;amenity;cafe;limited;osm_node
osm:node_2641501120;Le Donne di Lù;45.5828467;9.2914629;shop;hairdresser;limited;osm_node
osm:node_2641504945;Prix;45.5741448;9.2836543;shop;supermarket;;osm_node
osm:node_2647926493;Fit Active;45.5651793;9.2689222;leisure;fitness_centre;;osm_node
osm:node_2647932501;IN's Mercato;45.5808855;9.2947207;shop;supermarket;;osm_node
osm:node_2661467201;Revolution;45.5826153;9.2748041;shop;hairdresser;;osm_node
osm:node_2661491807;Madonna del Buon Consiglio;45.5813829;9.2715922;historic;wayside_shrine;;osm_node
osm:node_2667658828;Acqua Sapiens;45.5777636;9.2669379;shop;laundry;;osm_node
osm:node_2667658848;Le Spa Berbère;45.5770885;9.2671259;shop;beauty;;osm_node
osm:node_2667658864;Farmachl San Carlo;45.5762299;9.2657584;amenity;pharmacy;;osm_node
osm:node_2682416476;Il cortiletto;45.5826527;9.2742673;craft;handicraft;;osm_node
osm:node_2682464731;Narcisa;45.5859983;9.2742721;shop;clothes;;osm_node
osm:node_2682543356;Civico 13;45.5843088;9.2713508;shop;wine;;osm_node
osm:node_2692182668;Quinto Quarto;45.5859026;9.2620718;amenity;restaurant;;osm_node
osm:node_2694680336;Spazio Bimbo;45.5805614;9.2816838;amenity;kindergarten;;osm_node
osm:node_2694700570;Autofficina Rampa;45.5787322;9.2795902;shop;car_repair;;osm_node
osm:node_2694708263;Abitando Interior Design;45.577737;9.2780535;shop;furniture;;osm_node
osm:node_2694708281;Ironfit;45.5777379;9.2774841;leisure;fitness_centre;;osm_node
osm:node_2694714985;Centro Dentistico Primo;45.5806514;9.2727817;amenity;dentist;;osm_node
osm:node_2694735185;Foolbite;45.5812808;9.2762601;office;advertising_agency;;osm_node
osm:node_2697111768;Casa della Pelle;45.5775837;9.2490686;shop;clothes;;osm_node
osm:node_2704557765;Taosystem;45.5803212;9.2633451;shop;beauty;;osm_node
osm:node_2704583193;Nuove Idee Arredamenti;45.5805743;9.264303;shop;interior_decoration;;osm_node
osm:node_2704583217;Palestra Renbukai K1;45.5809631;9.2636343;leisure;fitness_centre;yes;osm_node
osm:node_2704609652;Autofficina Spazioso Antonio;45.5794435;9.2665467;shop;car_repair;;osm_node
osm:node_2704609662;Il Forno di Monza;45.5809503;9.2663625;shop;bakery;;osm_node
osm:node_2704644301;La Cattolica;45.5790118;9.2722178;office;insurance;;osm_node
osm:node_2716961981;Dot Store;45.5825943;9.2791185;shop;copyshop;;osm_node
osm:node_2716961982;Stilo;45.583261;9.2745938;shop;gift;;osm_node
osm:node_2716961985;Aldo Coppola;45.5835949;9.2747626;shop;hairdresser;;osm_node
osm:node_2716961986;Stefano;45.5844095;9.280279;shop;hairdresser;;osm_node
osm:node_2716961987;Victory54;45.5856095;9.2804733;amenity;restaurant;;osm_node
osm:node_2716970952;Parcheggio Hotel Royal Falcone;45.5795864;9.273221;amenity;parking;;osm_node
osm:node_2716976245;Duomo Parking;45.5812874;9.2780498;amenity;parking;;osm_node
osm:node_2717079685;Bar Magic;45.5906256;9.284315;amenity;cafe;;osm_node
osm:node_2731583210;Travel Advisor;45.5853448;9.273693;amenity;money_transfer;;osm_node
osm:node_2731583264;Nessuno è solo;45.5853899;9.2736909;office;quango;;osm_node
osm:node_2731624377;modœtia;45.5859025;9.2749902;shop;fashion_accessories;limited;osm_node
osm:node_2731668948;I Gioielli di Briciola;45.5857643;9.273154;shop;jewelry;;osm_node
osm:node_2731669002;Trend;45.585092;9.2754807;shop;clothes;;osm_node
osm:node_2731674912;Gelaterie Barbera;45.5854851;9.2740472;amenity;ice_cream;;osm_node
osm:node_2731697712;La rinnovatrice calzoleria dal 1928;45.5815407;9.2739769;craft;shoemaker;no;osm_node
osm:node_2731885171;Remake;45.5842402;9.2760739;craft;tailor;;osm_node
osm:node_2731925412;Frutta e verdura Edoardo;45.5838224;9.2795124;shop;greengrocer;;osm_node
osm:node_2748308883;Ali;45.5805692;9.2729117;shop;hairdresser;;osm_node
osm:node_2748308898;Centro Ottico Rizzo;45.5856543;9.2755086;shop;optician;no;osm_node
osm:node_2748344076;W&H IT Tech;45.5853257;9.275539;shop;repair;no;osm_node
osm:node_2748344115;Poke House;45.5852617;9.2755276;amenity;fast_food;;osm_node
osm:node_2748374944;Crema & Cioccolato;45.5846647;9.2775305;amenity;ice_cream;;osm_node
osm:node_2748375047;Elena Professional;45.582407;9.2796496;shop;chemist;;osm_node
osm:node_2748375059;Lavanderia Adriana;45.5823987;9.2796981;shop;laundry;;osm_node
osm:node_2748375068;Elma professional;45.5823747;9.2798128;shop;hairdresser_supply;;osm_node
osm:node_2748451049;Tramezzino.it;45.5837465;9.2829227;amenity;fast_food;;osm_node
osm:node_2748451161;Locanda Bergamotto;45.5837707;9.2827867;amenity;restaurant;;osm_node
osm:node_2748485033;Sanuk;45.5835003;9.2855686;amenity;restaurant;;osm_node
osm:node_2748485185;Parco Bici;45.583551;9.2843214;shop;bicycle;;osm_node
osm:node_2748485303;Qualunquemente;45.5835308;9.2844681;amenity;bar;;osm_node
osm:node_2748485577;Pasticceria Villa Vecchia;45.5838785;9.2827058;shop;pastry;;osm_node
osm:node_2751468221;Korte's Comics;45.5865809;9.2841921;shop;books;;osm_node
osm:node_2751468222;Laghetto Valle dei Sospiri;45.593914;9.2812255;tourism;information;;osm_node
osm:node_2751468223;Mappa dei Percorsi Reali;45.5919046;9.2829508;tourism;information;;osm_node
osm:node_2761813896;Associazione Radioamatori Italiani - Sezione di Monza;45.5767552;9.2686869;leisure;club;;osm_node
osm:node_2761985315;MBNews;45.5907813;9.2912609;office;newspaper;;osm_node
osm:node_2762061076;Xcopy;45.5789019;9.282709;shop;copyshop;;osm_node
osm:node_2762178621;Impresa Galbiati;45.5776029;9.2780977;office;company;;osm_node
osm:node_2762178784;Okeoghene;45.5777691;9.2809696;shop;convenience;;osm_node
osm:node_2762272196;Dance Moves Academy;45.5779301;9.2762374;leisure;dance;;osm_node
osm:node_2762298355;Jhoselyn service;45.5802086;9.2728801;amenity;money_transfer;;osm_node
osm:node_2762324803;Biblioteca Carrobiolo;45.5865543;9.2771166;amenity;library;;osm_node
osm:node_2762368707;Compro Oro;45.5793495;9.2724612;shop;jewelry;;osm_node
osm:node_2762368727;ki point;45.5822401;9.2720519;amenity;post_office;;osm_node
osm:node_2762420985;Mappa degli Itinerari Turistici;45.5828875;9.2770337;tourism;information;;osm_node
osm:node_2762486483;Arengario;45.5843419;9.2751281;tourism;information;;osm_node
osm:node_2762486522;Chiesa del Carrobiolo;45.5870496;9.277156;tourism;information;;osm_node
osm:node_2762486545;Chiesa di San Gerardo al Corpo;45.5861907;9.2814358;tourism;information;;osm_node
osm:node_2762486577;Chiesa di San Maurizio e Santa Margherita;45.5834699;9.2802466;tourism;information;;osm_node
osm:node_2762486615;Chiesa di San Pietro Martire;45.5864311;9.2754416;tourism;information;;osm_node
osm:node_2762486650;Chiesa di Santa Maria Maddalena;45.5816678;9.2741231;tourism;information;;osm_node
osm:node_2762486688;Chiesa di Santa Maria degli Angeli;45.5858523;9.2728889;tourism;information;;osm_node
osm:node_2762486722;Chiesa di Santa Maria in Strada;45.5823413;9.2739527;tourism;information;;osm_node
osm:node_2762486757;Duomo - Basilica di San Giovanni Battista;45.5833789;9.275394;tourism;information;;osm_node
osm:node_2762486816;Mulino Colombo;45.5858269;9.2783976;tourism;information;;osm_node
osm:node_2762486854;Musei Civici di Monza - Ex Casa degli Umiliati;45.5827662;9.2745946;tourism;information;;osm_node
osm:node_2762486925;Museo e Tesoro del Duomo;45.5838941;9.275447;tourism;information;;osm_node
osm:node_2762486964;Oasi di San Gerardo;45.5855055;9.2790113;tourism;information;;osm_node
osm:node_2762487020;Palazzo degli Studi - Ex Chiesa di San Francesco;45.5836476;9.2729078;tourism;information;;osm_node
osm:node_2762487045;Ponte Nuovo;45.5876712;9.2786365;tourism;information;;osm_node
osm:node_2762487155;San Gerardo dei Tintori;45.5854801;9.2790035;historic;wayside_shrine;;osm_node
osm:node_2762487195;Torre Medievale di Via Lambro;45.5839993;9.2767581;tourism;information;;osm_node
osm:node_2762487241;Torretta Viscontea;45.5802294;9.2754119;tourism;information;;osm_node
osm:node_2783488280;Caffè Trieste;45.5853331;9.2730123;amenity;cafe;;osm_node
osm:node_2783488440;Profumeria Meroni;45.585383;9.2729893;shop;perfumery;;osm_node
osm:node_2783488452;Coincasa;45.5836959;9.2710064;shop;interior_decoration;;osm_node
osm:node_2783488471;Just in Case;45.5818776;9.2739906;shop;mobile_phone_accessories;yes;osm_node
osm:node_2783505068;J Nail Wine;45.5842025;9.2704809;shop;beauty;;osm_node
osm:node_2783505199;Riga Brandinali;45.5844276;9.2707004;shop;optician;;osm_node
osm:node_2783505226;Lina T.;45.584204;9.2707732;shop;clothes;;osm_node
osm:node_2783513710;Barberino's;45.5844409;9.2712618;shop;hairdresser;;osm_node
osm:node_2783595922;Foto Zucchi;45.5863236;9.2732543;craft;photographer;;osm_node
osm:node_2783596083;L'Opera;45.5862693;9.2734622;shop;hairdresser;;osm_node
osm:node_2783708915;Mail Box Etc.;45.5863341;9.2706777;amenity;post_office;;osm_node
osm:node_2783708925;Ibici;45.5860662;9.2711448;craft;tailor;;osm_node
osm:node_2783708938;Immagine Donna;45.5860436;9.2711884;shop;hairdresser;;osm_node
osm:node_2783736189;Ago & Svago;45.5865143;9.2700073;craft;tailor;;osm_node
osm:node_2783736190;Il Villaggio Globale;45.5864348;9.2704663;shop;convenience;;osm_node
osm:node_2783736195;Gi Group;45.5863673;9.2700887;office;employment_agency;;osm_node
osm:node_2783736197;Fonitalia;45.5861778;9.270044;shop;hearing_aids;;osm_node
osm:node_2793362875;Adecco;45.584674;9.2819485;office;employment_agency;;osm_node
osm:node_2793362876;Darisal;45.5842456;9.281058;shop;beauty;;osm_node
osm:node_2793362880;Yaya Nails;45.5844132;9.2806115;shop;beauty;;osm_node
osm:node_2793415980;Cappelleria Melegari;45.5842077;9.2799385;shop;clothes;;osm_node
osm:node_2793464004;Élite;45.5880684;9.2758575;shop;hairdresser;;osm_node
osm:node_2793505382;Origine;45.5899389;9.2766315;tourism;artwork;;osm_node
osm:node_2793660015;AGZ;45.5796715;9.2703909;office;advertising_agency;;osm_node
osm:node_2793680764;Amine;45.5800579;9.2723582;shop;hairdresser;;osm_node
osm:node_2800562635;Officina Fratelli Brambilla;45.5893548;9.2874368;shop;car_repair;;osm_node
osm:node_2800562636;Legit;45.5830019;9.2792768;shop;clothes;;osm_node
osm:node_2800562831;Farmacia Alle Grazie;45.5881354;9.2873584;amenity;pharmacy;;osm_node
osm:node_2800562832;La Pelucca;45.5949953;9.2845861;tourism;information;;osm_node
osm:node_2800563144;Gio Tennis;45.5894668;9.2867354;shop;clothes;;osm_node
osm:node_2800563147;Michele Dinardo;45.5880715;9.2870492;shop;hairdresser;;osm_node
osm:node_2800563158;Only Z;45.5852761;9.2838992;shop;shoes;;osm_node
osm:node_2800563159;Orso Bruno;45.5899833;9.2877656;amenity;restaurant;;osm_node
osm:node_2800563161;Romy New Hair;45.5889627;9.2869484;shop;hairdresser;;osm_node
osm:node_2800563162;Solarium Adria;45.5862645;9.2824651;shop;beauty;;osm_node
osm:node_2800563163;Stock House;45.5793225;9.2755322;shop;clothes;;osm_node
osm:node_2818381131;Colmar;45.595953;9.2450143;office;company;;osm_node
osm:node_2829285863;Fedeli Cashmere;45.5765592;9.2716075;office;company;;osm_node
osm:node_2829285864;Mi Perù;45.5774026;9.2724802;amenity;restaurant;;osm_node
osm:node_2829326905;Consorzio Autoscuole Villoresi;45.5781128;9.2696251;amenity;driving_school;;osm_node
osm:node_2829326906;International English;45.5779488;9.2695499;amenity;language_school;;osm_node
osm:node_2858713238;Piazza Orlando;45.5802408;9.2913795;shop;bicycle;;osm_node
osm:node_2858759235;Pozzi Arreda;45.5809702;9.2918074;shop;furniture;;osm_node
osm:node_2858759236;Supermercati Metà;45.5810835;9.2905776;shop;convenience;;osm_node
osm:node_2858764282;Macelleria Polleria;45.580993;9.2915233;shop;butcher;;osm_node
osm:node_2858764283;Caffè della Posta;45.5809829;9.2916266;amenity;cafe;;osm_node
osm:node_2858764284;Emmedental;45.5809799;9.2917141;amenity;dentist;;osm_node
osm:node_2858764285;Fabbrica delle Feste;45.5813033;9.2898218;shop;household;;osm_node
osm:node_2858820623;Ottica-Foto Molteni;45.5795429;9.2940141;shop;optician;;osm_node
osm:node_2858821028;Bar Monza;45.57966;9.2910456;amenity;cafe;;osm_node
osm:node_2858821029;Cartolibreria Lucchiin;45.5795031;9.2910015;shop;stationery;;osm_node
osm:node_2858821030;Costa Salon;45.5795324;9.2897106;shop;beauty;;osm_node
osm:node_2858822167;Acconciature Sonia;45.5795412;9.2940855;shop;hairdresser;;osm_node
osm:node_2858899721;Taglio & Stile;45.5794212;9.2928718;shop;hairdresser;;osm_node
osm:node_2858899726;Ortofrutta Beretta;45.579427;9.292675;shop;greengrocer;;osm_node
osm:node_2876354672;Concordia;45.5838288;9.2667122;shop;deli;;osm_node
osm:node_2876433626;Estetica Lory;45.5842016;9.2659137;shop;beauty;;osm_node
osm:node_2876436179;Luciano Acconciature;45.5848324;9.264168;shop;hairdresser;;osm_node
osm:node_2876436326;Velvet;45.5848808;9.2640499;amenity;bar;;osm_node
osm:node_2876436591;Valentina;45.5836386;9.2656965;shop;clothes;;osm_node
osm:node_2880126310;Mulino a Vino;45.5855798;9.2784883;amenity;restaurant;;osm_node
osm:node_2887084224;Gelateria Il Pingunino;45.5739038;9.2550608;amenity;ice_cream;;osm_node
osm:node_2887097646;Farmacia Romagna;45.5729523;9.25233;amenity;pharmacy;;osm_node
osm:node_2887109088;Bar Romagna;45.5727702;9.2518673;amenity;cafe;;osm_node
osm:node_2887109250;Il Forno Moderno;45.5730691;9.2528335;shop;bakery;;osm_node
osm:node_2887117608;Fort Bragg;45.57266;9.2514417;shop;military_surplus;;osm_node
osm:node_2887118648;Autoscuola Fuori Giri;45.5726442;9.25137;amenity;driving_school;;osm_node
osm:node_2903065393;Pizzeria Sobborghi;45.5815785;9.2862305;amenity;fast_food;;osm_node
osm:node_2903078298;Da Serafino al Mattino;45.5810962;9.2904402;amenity;restaurant;;osm_node
osm:node_2903080207;Studio Associato Grandi & Pellegrini;45.5811271;9.2900729;amenity;dentist;;osm_node
osm:node_2903080878;Erboristeria Alpen;45.5811217;9.2901688;shop;herbalist;;osm_node
osm:node_2903081488;Nobilfoto;45.5811142;9.2902746;shop;optician;;osm_node
osm:node_2903081489;Pelletteria Casiraghi;45.5811366;9.2899913;shop;bag;;osm_node
osm:node_2903081490;Shanghai;45.5811056;9.2903624;shop;hairdresser;;osm_node
osm:node_2903101766;Autofficina Vigevani Carlo;45.5820882;9.2911608;shop;car_repair;yes;osm_node
osm:node_2903104029;Decor Market;45.5812395;9.2907265;shop;doityourself;yes;osm_node
osm:node_2903105103;Studio Danza;45.5817375;9.2908893;leisure;dance;;osm_node
osm:node_2903113228;Acconciature Maschili Enzo;45.5826469;9.2915023;shop;hairdresser;yes;osm_node
osm:node_2903138930;Onoranze Funebri Città di Monza;45.582621;9.2916601;shop;funeral_directors;yes;osm_node
osm:node_2903138931;Osteria La Lira;45.5825628;9.2921;amenity;restaurant;yes;osm_node
osm:node_2903138932;PizzaTime;45.5825217;9.2923886;amenity;fast_food;limited;osm_node
osm:node_2903138933;Tempocasa;45.5825863;9.2919255;office;estate_agent;yes;osm_node
osm:node_2903176695;Madonna del Fornaio;45.580819;9.2933118;historic;wayside_shrine;;osm_node
osm:node_2903176873;Le Golosità del Fornaio;45.5808648;9.293061;shop;bakery;;osm_node
osm:node_2903178466;Tiziano Acconciature Maschili;45.5808767;9.2929146;shop;hairdresser;;osm_node
osm:node_2903215868;Shanghai Mercato;45.5813903;9.2945404;shop;department_store;;osm_node
osm:node_2915596004;Macelleria Parma;45.5870343;9.2684536;shop;butcher;;osm_node
osm:node_2915596846;Lega Nord;45.5854715;9.2805966;office;political_party;;osm_node
osm:node_2915597184;Occhiali24;45.5842537;9.280018;shop;optician;;osm_node
osm:node_2915597384;BSstudio;45.5871187;9.2729127;amenity;clinic;;osm_node
osm:node_2915597399;Parrucchiere Mandu;45.5868363;9.2693567;shop;hairdresser;;osm_node
osm:node_2915810484;Biblioteca del Parco Bruno Di Tommaso;45.6036966;9.2839708;amenity;library;;osm_node
osm:node_2925085899;Casati;45.5882424;9.265417;shop;deli;;osm_node
osm:node_2925112389;Guerra Cosmesi;45.5884087;9.2650102;shop;beauty;;osm_node
osm:node_2925112394;Nuovo Donna;45.5885114;9.2647183;shop;hairdresser;;osm_node
osm:node_2925112395;Ristorante Villa Reale;45.5890131;9.2622548;amenity;restaurant;;osm_node
osm:node_2925112396;Sartoria Smiroldo;45.5884545;9.2648794;craft;tailor;;osm_node
osm:node_2925112397;UIT Viaggi;45.5884913;9.2647773;shop;travel_agency;;osm_node
osm:node_2925113293;Il Tabaccaio;45.5887778;9.2634183;shop;tobacco;;osm_node
osm:node_2925118060;Da Salvatore;45.5888052;9.2638382;amenity;fast_food;;osm_node
osm:node_2925118061;Ferramenta Pazzi;45.588847;9.2636571;shop;hardware;;osm_node
osm:node_2925118066;Parrucchiere Tommaso;45.5890859;9.2625059;shop;hairdresser;;osm_node
osm:node_2925119614;Coffee and Wine;45.5890104;9.2628623;amenity;cafe;;osm_node
osm:node_2925119617;Ortofrutta Monzese;45.5889659;9.2630839;shop;greengrocer;;osm_node
osm:node_2925120713;Il Luculliano;45.5888547;9.2636014;shop;deli;;osm_node
osm:node_2925120716;Osteria Nero Pepe;45.5887326;9.2643179;amenity;restaurant;;osm_node
osm:node_2925120717;Sun Moon;45.5889366;9.2632418;amenity;pub;;osm_node
osm:node_2925123127;Al 37;45.5891832;9.2620664;amenity;cafe;;osm_node
osm:node_2925123128;L'Albero dei Gelati;45.58923;9.261815;amenity;ice_cream;;osm_node
osm:node_2925129080;Centro Fisioterapico Sinthesis;45.5901758;9.2626144;amenity;clinic;;osm_node
osm:node_2925132519;Autofficina Tienne Car;45.5894264;9.2619757;shop;car_repair;;osm_node
osm:node_2925132520;Il Regno del Pane;45.589136;9.262286;shop;bakery;;osm_node
osm:node_2925135700;Barracudino;45.5893655;9.2637394;amenity;restaurant;;osm_node
osm:node_2935664899;Teatrino di corte;45.5938321;9.2732084;amenity;theatre;;osm_node
osm:node_2935684160;Consolato Onorario d'Albania;45.5852164;9.268239;office;diplomatic;;osm_node
osm:node_2935720146;A'Scogliera;45.5865035;9.2643852;amenity;fast_food;;osm_node
osm:node_2935720147;Il Tempio del Suono;45.5863201;9.2651007;shop;hifi;;osm_node
osm:node_2935760153;Alberto Dell'Orto;45.585939;9.2628312;shop;florist;;osm_node
osm:node_2935765513;Trattoria del Frettoloso;45.5860875;9.2614439;amenity;restaurant;;osm_node
osm:node_2935769032;Riti di Bellezza;45.5861425;9.2629505;shop;hairdresser;;osm_node
osm:node_2935769399;Carrozzeria Col di Lana;45.585614;9.2628941;shop;car_repair;yes;osm_node
osm:node_2947996201;La Casa dell'Architetto;45.5872558;9.2738484;tourism;guest_house;;osm_node
osm:node_2947997933;Scatafashow;45.5865733;9.274362;amenity;nightclub;;osm_node
osm:node_2948031674;Boutique Dodo;45.5856045;9.2756368;shop;jewelry;no;osm_node
osm:node_2948031736;iSutti;45.5855153;9.2756001;shop;jewelry;no;osm_node
osm:node_2948098081;Art Gallery;45.5852807;9.2808078;shop;carpet;;osm_node
osm:node_2948098082;Museo Mulino Colombo;45.5857633;9.2783972;tourism;museum;;osm_node
osm:node_2948123771;Obiettivo Lavoro;45.587186;9.2838973;office;employment_agency;;osm_node
osm:node_2948123990;Ciro Coppola;45.5857761;9.281871;shop;hairdresser;;osm_node
osm:node_2948123992;Monza Centro;45.5871269;9.2838161;office;estate_agent;;osm_node
osm:node_2948123993;No Mas Vello;45.5856659;9.2817243;shop;beauty;;osm_node
osm:node_2948148571;MAC Cosmetics;45.5830476;9.2741698;shop;cosmetics;;osm_node
osm:node_2956923697;Club Alpino Italiano - Sezione Monza;45.5731553;9.2753268;office;association;;osm_node
osm:node_2957092033;Parafarmacia Frosi;45.5884296;9.2720798;amenity;pharmacy;;osm_node
osm:node_2957148474;Cappella Espiatoria;45.5914409;9.2687794;tourism;information;;osm_node
osm:node_2957187214;Zen;45.5866902;9.2758234;shop;clothes;;osm_node
osm:node_2969256998;La Barchetta;45.5834251;9.2853307;amenity;restaurant;;osm_node
osm:node_2969257000;Minacciolo;45.5718774;9.283426;shop;furniture;;osm_node
osm:node_2969258105;Fili Folli;45.5837672;9.2834676;shop;fabric;;osm_node
osm:node_2969261519;Iperbimbo;45.5741428;9.2833147;shop;baby_goods;;osm_node
osm:node_2969261520;Del vecchio cafè;45.5724173;9.283322;amenity;cafe;;osm_node
osm:node_2969261521;Gruppo Meregalli;45.5835488;9.2812177;shop;wine;;osm_node
osm:node_2969262317;Philly food;45.5731853;9.2831188;amenity;fast_food;;osm_node
osm:node_2969262323;Motta Baby;45.5779918;9.2718906;shop;baby_goods;;osm_node
osm:node_2969263019;Lavanderia Buonarroti;45.5720799;9.2833326;shop;laundry;;osm_node
osm:node_2969263028;Stockhouse;45.5835764;9.2793516;shop;clothes;;osm_node
osm:node_2969263137;Ortopedia Rossi;45.5734398;9.2830187;shop;orthopedics;;osm_node
osm:node_2969263138;Platoon;45.5837705;9.2834244;shop;military_surplus;;osm_node
osm:node_2969263139;Tigotà;45.5737579;9.2835623;shop;chemist;;osm_node
osm:node_2969263140;Urban Center;45.5774124;9.2745339;tourism;information;;osm_node
osm:node_2979121071;Ponte dei Leoni Parking;45.5857548;9.2796697;amenity;parking;;osm_node
osm:node_2991954243;Monkey;45.5830838;9.2768838;amenity;ice_cream;;osm_node
osm:node_2992008904;Unicredit;45.5876374;9.2871494;amenity;bank;;osm_node
osm:node_2992009836;Acconciature Corbetta;45.5876374;9.2873985;shop;hairdresser;;osm_node
osm:node_2992009837;Bar Canova;45.5876904;9.2874129;amenity;cafe;;osm_node
osm:node_2992011502;Kyphi;45.5872381;9.2839886;shop;chemist;;osm_node
osm:node_2992028208;Parrucchiere Paolo;45.5824773;9.2740732;shop;hairdresser;;osm_node
osm:node_3035694741;A Pizza;45.5706754;9.2862729;amenity;fast_food;;osm_node
osm:node_3050060117;Convento Santa Maria delle Grazie;45.5918998;9.284749;tourism;information;;osm_node
osm:node_3050062168;Gallo Rosso;45.5815767;9.2876317;amenity;fast_food;;osm_node
osm:node_3050062169;Hospice Santa Maria delle Grazie;45.5911049;9.2859265;amenity;social_facility;;osm_node
osm:node_3050062170;Il Copto 3;45.5884648;9.2872121;amenity;fast_food;;osm_node
osm:node_3050062171;La Makkia;45.5901776;9.2837186;shop;laundry;;osm_node
osm:node_3050064796;Fioreria;45.5893965;9.2865264;shop;florist;;osm_node
osm:node_3050065064;Pentadent;45.5872815;9.2889465;amenity;dentist;;osm_node
osm:node_3050065065;Porta Carrobiola;45.5880307;9.2770913;tourism;information;;osm_node
osm:node_3050065066;Santuario Santa Maria delle Grazie;45.5917738;9.2847243;tourism;information;;osm_node
osm:node_3060976884;Libreria Istituti Nuovi;45.5808415;9.2658954;shop;books;;osm_node
osm:node_3060980375;Unione Sindacale di Base - Federazione Monza e Brianza;45.5799379;9.2623383;office;union;;osm_node
