[
  {
    "id":1,
    "name":"Eni",
    "wheelchair":null,
    "type":"poi",
    "coordinates":{
      "lat":45.618915,
      "lng":9.282171
    },
    "metadata":{
      "category":"amenity",
      "subcategory":"fuel"
    },
    "house_addr":null
  },
  {
    "id":2,
    "name":"Scuola Agraria del Parco di Monza",
    "wheelchair":null,
    "type":"poi",
    "coordinates":{
      "lat":45.6008122,
      "lng":9.2723318
    },
    "metadata":{
      "category":"amenity",
      "subcategory":"school"
    },
    "house_addr":null
  },
  {
    "id":3,
    "name":"Biblioteca Monza - Triante",
    "wheelchair":null,
    "type":"poi",
    "coordinates":{
      "lat":45.5831674,
      "lng":9.2553114
    },
    "metadata":{
      "category":"amenity",
      "subcategory":"library"
    },
    "house_addr":null
  },
  {
    "id":4,
    "name":"Monza 6",
    "wheelchair":null,
    "type":"poi",
    "coordinates":{
      "lat":45.5684917,
      "lng":9.2416796
    },
    "metadata":{
      "category":"amenity",
      "subcategory":"post_office"
    },
    "house_addr":null
  },
  {
    "id":5,
    "name":"Monza Centro Via Gramsci",
    "wheelchair":"limited",
    "type":"poi",
    "coordinates":{
      "lat":45.5817617,
      "lng":9.2710485
    },
    "metadata":{
      "category":"amenity",
      "subcategory":"parking"
    },
    "house_addr":null
  },
  {
    "id":6,
    "name":"Biblioteca Civica - Monza",
    "wheelchair":null,
    "type":"poi",
    "coordinates":{
      "lat":45.5838734,
      "lng":9.2724811
    },
    "metadata":{
      "category":"amenity",
      "subcategory":"library"
    },
    "house_addr":null
  },
  {
    "id":7,
    "name":"Liceo Classico Bartolomeo Zucchi",
    "wheelchair":null,
    "type":"poi",
    "coordinates":{
      "lat":45.5836418,
      "lng":9.2727905
    },
    "metadata":{
      "category":"amenity",
      "subcategory":"school"
    },
    "house_addr":null
  },
  {
    "id":8,
    "name":"Borgo Bergamo Parking",
    "wheelchair":null,
    "type":"poi",
    "coordinates":{
      "lat":45.584812,
      "lng":9.2848575
    },
    "metadata":{
      "category":"amenity",
      "subcategory":"parking"
    },
    "house_addr":null
  },
  {
    "id":9,
    "name":"McDonald's",
    "wheelchair":"yes",
    "type":"poi",
    "coordinates":{
      "lat":45.5720221,
      "lng":9.2475957
    },
    "metadata":{
      "category":"amenity",
      "subcategory":"fast_food"
    },
    "house_addr":null
  },
  {
    "id":10,
    "name":"Capitol",
    "wheelchair":null,
    "type":"poi",
    "coordinates":{
      "lat":45.5866863,
      "lng":9.2744607
    },
    "metadata":{
      "category":"amenity",
      "subcategory":"cinema"
    },
    "house_addr":null
  },
  {
    "id":11,
    "name":"Farmacia Cederna",
    "wheelchair":null,
    "type":"poi",
    "coordinates":{
      "lat":45.5799797,
      "lng":9.2971707
    },
    "metadata":{
      "category":"amenity",
      "subcategory":"pharmacy"
    },
    "house_addr":null
  },
  {
    "id":12,
    "name":"Farmacia Comunale n° 6",
    "wheelchair":null,
    "type":"poi",
    "coordinates":{
      "lat":45.5794855,
      "lng":9.3027766
    },
    "metadata":{
      "category":"amenity",
      "subcategory":"pharmacy"
    },
    "house_addr":null
  },
  {
    "id":13,
    "name":"Parafarmacia Tutto Salute",
    "wheelchair":null,
    "type":"poi",
    "coordinates":{
      "lat":45.5707985,
      "lng":9.2841577
    },
    "metadata":{
      "category":"amenity",
      "subcategory":"pharmacy"
    },
    "house_addr":null
  },
  {
    "id":14,
    "name":"Farmacia Basaglia",
    "wheelchair":null,
    "type":"poi",
    "coordinates":{
      "lat":45.5743064,
      "lng":9.2827778
    },
    "metadata":{
      "category":"amenity",
      "subcategory":"pharmacy"
    },
    "house_addr":null
  },
  {
    "id":15,
    "name":"Farmacia Americana",
    "wheelchair":"yes",
    "type":"poi",
    "coordinates":{
      "lat":45.5778881,
      "lng":9.282494
    },
    "metadata":{
      "category":"amenity",
      "subcategory":"pharmacy"
    },
    "house_addr":null
  },
  {
    "id":16,
    "name":"Parcheggio di Piazza Trento e Trieste",
    "wheelchair":null,
    "type":"poi",
    "coordinates":{
      "lat":45.5829537,
      "lng":9.272952
    },
    "metadata":{
      "category":"amenity",
      "subcategory":"parking"
    },
    "house_addr":null
  },
  {
    "id":17,
    "name":"Farmacia Comunale n. 1",
    "wheelchair":null,
    "type":"poi",
    "coordinates":{
      "lat":45.5708907,
      "lng":9.2447598
    },
    "metadata":{
      "category":"amenity",
      "subcategory":"pharmacy"
    },
    "house_addr":null
  },
  {
    "id":18,
    "name":"Teatro Villoresi",
    "wheelchair":null,
    "type":"poi",
    "coordinates":{
      "lat":45.5869186,
      "lng":9.2766557
    },
    "metadata":{
      "category":"amenity",
      "subcategory":"theatre"
    },
    "house_addr":null
  },
  {
    "id":19,
    "name":"Bici",
    "wheelchair":null,
    "type":"poi",
    "coordinates":{
      "lat":45.5732457,
      "lng":9.3076799
    },
    "metadata":{
      "category":"amenity",
      "subcategory":"bicycle_parking"
    },
    "house_addr":null
  },
  {
    "id":20,
    "name":"FCC - Cancelleria all'ingrosso",
    "wheelchair":null,
    "type":"poi",
    "coordinates":{
      "lat":45.5632804,
      "lng":9.2893419
    },
    "metadata":{
      "category":"shop",
      "subcategory":"stationery"
    },
    "house_addr":null
  },
  {
    "id":21,
    "name":"Banca Intesa San Paolo",
    "wheelchair":null,
    "type":"poi",
    "coordinates":{
      "lat":45.5794845,
      "lng":9.3002571
    },
    "metadata":{
      "category":"amenity",
      "subcategory":"bank"
    },
    "house_addr":null
  },
  {
    "id":22,
    "name":"Bar le Monelle",
    "wheelchair":null,
    "type":"poi",
    "coordinates":{
      "lat":45.6001505,
      "lng":9.2575481
    },
    "metadata":{
      "category":"amenity",
      "subcategory":"cafe"
    },
    "house_addr":null
  },
  {
    "id":23,
    "name":"Tre tempi",
    "wheelchair":null,
    "type":"poi",
    "coordinates":{
      "lat":45.5982322,
      "lng":9.2558641
    },
    "metadata":{
      "category":"amenity",
      "subcategory":"restaurant"
    },
    "house_addr":null
  },
  {
    "id":24,
    "name":"Blanc Bakery Pizza Food & Wine Bar",
    "wheelchair":null,
    "type":"poi",
    "coordinates":{
      "lat":45.6000098,
      "lng":9.2594088
    },
    "metadata":{
      "category":"amenity",
      "subcategory":"restaurant"
    },
    "house_addr":null
  },
  {
    "id":25,
    "name":"Giardini di Auchan",
    "wheelchair":null,
    "type":"poi",
    "coordinates":{
      "lat":45.5900646,
      "lng":9.2503561
    },
    "metadata":{
      "category":"tourism",
      "subcategory":"information"
    },
    "house_addr":null
  },
  {
    "id":26,
    "name":"Carrozzeria Lari",
    "wheelchair":null,
    "type":"poi",
    "coordinates":{
      "lat":45.5973406,
      "lng":9.2556595
    },
    "metadata":{
      "category":"shop",
      "subcategory":"car_repair"
    },
    "house_addr":null
  },
  {
    "id":27,
    "name":"Monumento agli Alpini",
    "wheelchair":null,
    "type":"poi",
    "coordinates":{
      "lat":45.5957238,
      "lng":9.2542741
    },
    "metadata":{
      "category":"historic",
      "subcategory":"memorial"
    },
    "house_addr":null
  },
  {
    "id":28,
    "name":"Fabbro De Luise",
    "wheelchair":null,
    "type":"poi",
    "coordinates":{
      "lat":45.5865829,
      "lng":9.242902
    },
    "metadata":{
      "category":"craft",
      "subcategory":"metal_construction"
    },
    "house_addr":null
  },
  {
    "id":29,
    "name":"Intesa San Paolo",
    "wheelchair":null,
    "type":"poi",
    "coordinates":{
      "lat":45.6010849,
      "lng":9.2589213
    },
    "metadata":{
      "category":"amenity",
      "subcategory":"bank"
    },
    "house_addr":null
  },
  {
    "id":30,
    "name":"Pittarello",
    "wheelchair":null,
    "type":"poi",
    "coordinates":{
      "lat":45.5722703,
      "lng":9.2474182
    },
    "metadata":{
      "category":"shop",
      "subcategory":"shoes"
    },
    "house_addr":null
  },
  {
    "id":31,
    "name":"Parcheggio Esselunga",
    "wheelchair":null,
    "type":"poi",
    "coordinates":{
      "lat":45.569847,
      "lng":9.246328
    },
    "metadata":{
      "category":"amenity",
      "subcategory":"parking"
    },
    "house_addr":null
  },
  {
    "id":32,
    "name":"Esselunga",
    "wheelchair":null,
    "type":"poi",
    "coordinates":{
      "lat":45.5785678,
      "lng":9.2829493
    },
    "metadata":{
      "category":"amenity",
      "subcategory":"parking_entrance"
    },
    "house_addr":null
  },
  {
    "id":33,
    "name":"Credito Artigiano",
    "wheelchair":null,
    "type":"poi",
    "coordinates":{
      "lat":45.5905677,
      "lng":9.3021521
    },
    "metadata":{
      "category":"amenity",
      "subcategory":"bank"
    },
    "house_addr":null
  },
  {
    "id":34,
    "name":"MoBLUG",
    "wheelchair":null,
    "type":"poi",
    "coordinates":{
      "lat":45.5819338,
      "lng":9.2951995
    },
    "metadata":{
      "category":"leisure",
      "subcategory":"club"
    },
    "house_addr":null
  },
  {
    "id":35,
    "name":"Monumento a Mosè Bianchi",
    "wheelchair":null,
    "type":"poi",
    "coordinates":{
      "lat":45.5863582,
      "lng":9.2754115
    },
    "metadata":{
      "category":"tourism",
      "subcategory":"artwork"
    },
    "house_addr":null
  },
  {
    "id":36,
    "name":"Farmacia Rondò",
    "wheelchair":null,
    "type":"poi",
    "coordinates":{
      "lat":45.5899542,
      "lng":9.2488425
    },
    "metadata":{
      "category":"amenity",
      "subcategory":"pharmacy"
    },
    "house_addr":null
  },
  {
    "id":37,
    "name":"TiK Tak",
    "wheelchair":null,
    "type":"poi",
    "coordinates":{
      "lat":45.5794393,
      "lng":9.2595643
    },
    "metadata":{
      "category":"amenity",
      "subcategory":"bar"
    },
    "house_addr":null
  },
  {
    "id":38,
    "name":"Punto Enel",
    "wheelchair":null,
    "type":"poi",
    "coordinates":{
      "lat":45.5825319,
      "lng":9.3117267
    },
    "metadata":{
      "category":"office",
      "subcategory":"energy_supplier"
    },
    "house_addr":null
  },
  {
    "id":39,
    "name":"Osteria del Cavolo",
    "wheelchair":null,
    "type":"poi",
    "coordinates":{
      "lat":45.5829339,
      "lng":9.2764686
    },
    "metadata":{
      "category":"amenity",
      "subcategory":"restaurant"
    },
    "house_addr":null
  },
  {
    "id":40,
    "name":"Nikky",
    "wheelchair":null,
    "type":"poi",
    "coordinates":{
      "lat":45.5829542,
      "lng":9.2766781
    },
    "metadata":{
      "category":"amenity",
      "subcategory":"restaurant"
    },
    "house_addr":null
  },
  {
    "id":41,
    "name":"Uhaz",
    "wheelchair":null,
    "type":"poi",
    "coordinates":{
      "lat":45.5781283,
      "lng":9.2721977
    },
    "metadata":{
      "category":"amenity",
      "subcategory":"cafe"
    },
    "house_addr":null
  },
  {
    "id":42,
    "name":"La Stazione del Caffè",
    "wheelchair":"yes",
    "type":"poi",
    "coordinates":{
      "lat":45.5777517,
      "lng":9.2728058
    },
    "metadata":{
      "category":"amenity",
      "subcategory":"cafe"
    },
    "house_addr":null
  },
  {
    "id":43,
    "name":"Panificio Crivelli",
    "wheelchair":"limited",
    "type":"poi",
    "coordinates":{
      "lat":45.5838385,
      "lng":9.2791309
    },
    "metadata":{
      "category":"shop",
      "subcategory":"bakery"
    },
    "house_addr":null
  },
  {
    "id":44,
    "name":"Flor Shop Monza",
    "wheelchair":null,
    "type":"poi",
    "coordinates":{
      "lat":45.5883791,
      "lng":9.2851607
    },
    "metadata":{
      "category":"shop",
      "subcategory":"florist"
    },
    "house_addr":null
  },
  {
    "id":45,
    "name":"La Voliera per Umani",
    "wheelchair":null,
    "type":"poi",
    "coordinates":{
      "lat":45.5962241,
      "lng":9.2830913
    },
    "metadata":{
      "category":"tourism",
      "subcategory":"artwork"
    },
    "house_addr":null
  },
  {
    "id":46,
    "name":"Centro Ippico S. Maria",
    "wheelchair":null,
    "type":"poi",
    "coordinates":{
      "lat":45.6050832,
      "lng":9.2837752
    },
    "metadata":{
      "category":"leisure",
      "subcategory":"horse_riding"
    },
    "house_addr":null
  },
  {
    "id":47,
    "name":"Lo Scrittore",
    "wheelchair":"limited",
    "type":"poi",
    "coordinates":{
      "lat":45.6051975,
      "lng":9.2872528
    },
    "metadata":{
      "category":"tourism",
      "subcategory":"artwork"
    },
    "house_addr":null
  },
  {
    "id":48,
    "name":"Monumento ai Caduti del Lavoro",
    "wheelchair":null,
    "type":"poi",
    "coordinates":{
      "lat":45.5781788,
      "lng":9.272489
    },
    "metadata":{
      "category":"historic",
      "subcategory":"memorial"
    },
    "house_addr":null
  },
  {
    "id":49,
    "name":"Largo IV Novembre",
    "wheelchair":null,
    "type":"poi",
    "coordinates":{
      "lat":45.58427,
      "lng":9.2741611
    },
    "metadata":{
      "category":"amenity",
      "subcategory":"parking"
    },
    "house_addr":null
  },
  {
    "id":50,
    "name":"Teodolinda",
    "wheelchair":null,
    "type":"poi",
    "coordinates":{
      "lat":45.5828831,
      "lng":9.2741617
    },
    "metadata":{
      "category":"amenity",
      "subcategory":"cafe"
    },
    "house_addr":null
  },
  {
    "id":51,
    "name":"Niena",
    "wheelchair":null,
    "type":"poi",
    "coordinates":{
      "lat":45.5853811,
      "lng":9.2740358
    },
    "metadata":{
      "category":"amenity",
      "subcategory":"restaurant"
    },
    "house_addr":null
  },
  {
    "id":52,
    "name":"Trattoria Caprese",
    "wheelchair":"yes",
    "type":"poi",
    "coordinates":{
      "lat":45.5848798,
      "lng":9.2746925
    },
    "metadata":{
      "category":"amenity",
      "subcategory":"restaurant"
    },
    "house_addr":null
  },
  {
    "id":53,
    "name":"Dentix",
    "wheelchair":null,
    "type":"poi",
    "coordinates":{
      "lat":45.5843058,
      "lng":9.2774698
    },
    "metadata":{
      "category":"amenity",
      "subcategory":"dentist"
    },
    "house_addr":null
  },
  {
    "id":54,
    "name":"UBI Banca Popolare di Bergamo",
    "wheelchair":null,
    "type":"poi",
    "coordinates":{
      "lat":45.5823314,
      "lng":9.2781237
    },
    "metadata":{
      "category":"amenity",
      "subcategory":"bank"
    },
    "house_addr":null
  },
  {
    "id":55,
    "name":"Lenry",
    "wheelchair":null,
    "type":"poi",
    "coordinates":{
      "lat":45.5830242,
      "lng":9.2767801
    },
    "metadata":{
      "category":"amenity",
      "subcategory":"cafe"
    },
    "house_addr":null
  },
  {
    "id":56,
    "name":"L'arte del grano",
    "wheelchair":null,
    "type":"poi",
    "coordinates":{
      "lat":45.5831106,
      "lng":9.2769087
    },
    "metadata":{
      "category":"shop",
      "subcategory":"bakery"
    },
    "house_addr":null
  },
  {
    "id":57,
    "name":"Monumento a Giuseppe Garibaldi",
    "wheelchair":null,
    "type":"poi",
    "coordinates":{
      "lat":45.5849154,
      "lng":9.277626
    },
    "metadata":{
      "category":"historic",
      "subcategory":"memorial"
    },
    "house_addr":null
  },
  {
    "id":58,
    "name":"Caffè Sport",
    "wheelchair":null,
    "type":"poi",
    "coordinates":{
      "lat":45.5851877,
      "lng":9.2782265
    },
    "metadata":{
      "category":"amenity",
      "subcategory":"cafe"
    },
    "house_addr":null
  },
  {
    "id":59,
    "name":"Bar del Centro",
    "wheelchair":"limited",
    "type":"poi",
    "coordinates":{
      "lat":45.5829581,
      "lng":9.2732058
    },
    "metadata":{
      "category":"amenity",
      "subcategory":"cafe"
    },
    "house_addr":null
  },
  {
    "id":60,
    "name":"Luna Cafè",
    "wheelchair":null,
    "type":"poi",
    "coordinates":{
      "lat":45.5833438,
      "lng":9.2742323
    },
    "metadata":{
      "category":"amenity",
      "subcategory":"cafe"
    },
    "house_addr":null
  },
  {
    "id":61,
    "name":"United Colors of Benetton",
    "wheelchair":null,
    "type":"poi",
    "coordinates":{
      "lat":45.5842838,
      "lng":9.2757014
    },
    "metadata":{
      "category":"shop",
      "subcategory":"clothes"
    },
    "house_addr":null
  },
  {
    "id":62,
    "name":"Monza 2",
    "wheelchair":null,
    "type":"poi",
    "coordinates":{
      "lat":45.5820221,
      "lng":9.2751646
    },
    "metadata":{
      "category":"amenity",
      "subcategory":"post_office"
    },
    "house_addr":null
  },
  {
    "id":63,
    "name":"Zara",
    "wheelchair":"yes",
    "type":"poi",
    "coordinates":{
      "lat":45.5837468,
      "lng":9.2743421
    },
    "metadata":{
      "category":"shop",
      "subcategory":"clothes"
    },
    "house_addr":null
  },
  {
    "id":64,
    "name":"Farmacia Duse",
    "wheelchair":"no",
    "type":"poi",
    "coordinates":{
      "lat":45.5847934,
      "lng":9.2750068
    },
    "metadata":{
      "category":"amenity",
      "subcategory":"pharmacy"
    },
    "house_addr":null
  },
  {
    "id":65,
    "name":"Moderno",
    "wheelchair":null,
    "type":"poi",
    "coordinates":{
      "lat":45.5845415,
      "lng":9.2753715
    },
    "metadata":{
      "category":"amenity",
      "subcategory":"cafe"
    },
    "house_addr":null
  },
  {
    "id":66,
    "name":"Stroili Oro",
    "wheelchair":"no",
    "type":"poi",
    "coordinates":{
      "lat":45.5844417,
      "lng":9.2755051
    },
    "metadata":{
      "category":"shop",
      "subcategory":"jewelry"
    },
    "house_addr":null
  },
  {
    "id":67,
    "name":"mistertea",
    "wheelchair":null,
    "type":"poi",
    "coordinates":{
      "lat":45.5839045,
      "lng":9.2773508
    },
    "metadata":{
      "category":"amenity",
      "subcategory":"cafe"
    },
    "house_addr":null
  },
  {
    "id":68,
    "name":"Caffè della Signora",
    "wheelchair":null,
    "type":"poi",
    "coordinates":{
      "lat":45.5822157,
      "lng":9.2804432
    },
    "metadata":{
      "category":"amenity",
      "subcategory":"cafe"
    },
    "house_addr":null
  },
  {
    "id":69,
    "name":"Sephora",
    "wheelchair":null,
    "type":"poi",
    "coordinates":{
      "lat":45.5811121,
      "lng":9.273505
    },
    "metadata":{
      "category":"shop",
      "subcategory":"cosmetics"
    },
    "house_addr":null
  },
  {
    "id":70,
    "name":"G di Giochi",
    "wheelchair":null,
    "type":"poi",
    "coordinates":{
      "lat":45.5792266,
      "lng":9.2727269
    },
    "metadata":{
      "category":"shop",
      "subcategory":"toys"
    },
    "house_addr":null
  },
  {
    "id":71,
    "name":"Turnè",
    "wheelchair":null,
    "type":"poi",
    "coordinates":{
      "lat":45.583921,
      "lng":9.2825177
    },
    "metadata":{
      "category":"amenity",
      "subcategory":"bar"
    },
    "house_addr":null
  },
  {
    "id":72,
    "name":"La fioraia",
    "wheelchair":null,
    "type":"poi",
    "coordinates":{
      "lat":45.585239,
      "lng":9.2757941
    },
    "metadata":{
      "category":"shop",
      "subcategory":"florist"
    },
    "house_addr":null
  },
  {
    "id":73,
    "name":"Paesaggi Altrove",
    "wheelchair":null,
    "type":"poi",
    "coordinates":{
      "lat":45.5813098,
      "lng":9.2764613
    },
    "metadata":{
      "category":"shop",
      "subcategory":"travel_agency"
    },
    "house_addr":null
  },
  {
    "id":74,
    "name":"Foot Locker",
    "wheelchair":null,
    "type":"poi",
    "coordinates":{
      "lat":45.5842977,
      "lng":9.2754804
    },
    "metadata":{
      "category":"shop",
      "subcategory":"shoes"
    },
    "house_addr":null
  },
  {
    "id":75,
    "name":"San Michele Arcangelo",
    "wheelchair":null,
    "type":"poi",
    "coordinates":{
      "lat":45.5850373,
      "lng":9.274097
    },
    "metadata":{
      "category":"historic",
      "subcategory":"memorial"
    },
    "house_addr":null
  },
  {
    "id":76,
    "name":"Dori",
    "wheelchair":null,
    "type":"poi",
    "coordinates":{
      "lat":45.5850883,
      "lng":9.2743487
    },
    "metadata":{
      "category":"shop",
      "subcategory":"bakery"
    },
    "house_addr":null
  },
  {
    "id":77,
    "name":"Caffè San Paolo",
    "wheelchair":null,
    "type":"poi",
    "coordinates":{
      "lat":45.584988,
      "lng":9.2743389
    },
    "metadata":{
      "category":"amenity",
      "subcategory":"cafe"
    },
    "house_addr":null
  },
  {
    "id":78,
    "name":"Fideuram",
    "wheelchair":null,
    "type":"poi",
    "coordinates":{
      "lat":45.585086,
      "lng":9.2739416
    },
    "metadata":{
      "category":"amenity",
      "subcategory":"bank"
    },
    "house_addr":null
  },
  {
    "id":79,
    "name":"Wibe",
    "wheelchair":null,
    "type":"poi",
    "coordinates":{
      "lat":45.5827024,
      "lng":9.2768448
    },
    "metadata":{
      "category":"amenity",
      "subcategory":"bar"
    },
    "house_addr":null
  },
  {
    "id":80,
    "name":"Liquors",
    "wheelchair":null,
    "type":"poi",
    "coordinates":{
      "lat":45.5828392,
      "lng":9.2766135
    },
    "metadata":{
      "category":"amenity",
      "subcategory":"bar"
    },
    "house_addr":null
  },
  {
    "id":81,
    "name":"Uova e Farina",
    "wheelchair":null,
    "type":"poi",
    "coordinates":{
      "lat":45.5843526,
      "lng":9.2805151
    },
    "metadata":{
      "category":"shop",
      "subcategory":"deli"
    },
    "house_addr":null
  },
  {
    "id":82,
    "name":"L'Arco del Re",
    "wheelchair":null,
    "type":"poi",
    "coordinates":{
      "lat":45.5838842,
      "lng":9.2795354
    },
    "metadata":{
      "category":"shop",
      "subcategory":"deli"
    },
    "house_addr":null
  },
  {
    "id":83,
    "name":"Le Cucine di Via Zucchi",
    "wheelchair":null,
    "type":"poi",
    "coordinates":{
      "lat":45.5860292,
      "lng":9.2746842
    },
    "metadata":{
      "category":"amenity",
      "subcategory":"restaurant"
    },
    "house_addr":null
  },
  {
    "id":84,
    "name":"Le Delizie di Via Zucchi",
    "wheelchair":"no",
    "type":"poi",
    "coordinates":{
      "lat":45.5859128,
      "lng":9.2745934
    },
    "metadata":{
      "category":"shop",
      "subcategory":"bakery"
    },
    "house_addr":null
  },
  {
    "id":85,
    "name":"Farmacia Garibaldi",
    "wheelchair":null,
    "type":"poi",
    "coordinates":{
      "lat":45.5844612,
      "lng":9.2771025
    },
    "metadata":{
      "category":"amenity",
      "subcategory":"pharmacy"
    },
    "house_addr":null
  },
  {
    "id":86,
    "name":"Farmacia Robbiati",
    "wheelchair":null,
    "type":"poi",
    "coordinates":{
      "lat":45.5840527,
      "lng":9.2793193
    },
    "metadata":{
      "category":"amenity",
      "subcategory":"pharmacy"
    },
    "house_addr":null
  },
  {
    "id":87,
    "name":"Banco BPM",
    "wheelchair":null,
    "type":"poi",
    "coordinates":{
      "lat":45.584724,
      "lng":9.2742846
    },
    "metadata":{
      "category":"amenity",
      "subcategory":"bank"
    },
    "house_addr":null
  },
  {
    "id":88,
    "name":"Schooner Viaggi",
    "wheelchair":"limited",
    "type":"poi",
    "coordinates":{
      "lat":45.5839305,
      "lng":9.2783261
    },
    "metadata":{
      "category":"shop",
      "subcategory":"travel_agency"
    },
    "house_addr":null
  },
  {
    "id":89,
    "name":"Libraccio",
    "wheelchair":null,
    "type":"poi",
    "coordinates":{
      "lat":45.5840424,
      "lng":9.2786224
    },
    "metadata":{
      "category":"shop",
      "subcategory":"books"
    },
    "house_addr":null
  },
  {
    "id":90,
    "name":"Farmacia Dr.Max Monza Corso Milano",
    "wheelchair":null,
    "type":"poi",
    "coordinates":{
      "lat":45.577355,
      "lng":9.2714635
    },
    "metadata":{
      "category":"amenity",
      "subcategory":"pharmacy"
    },
    "house_addr":null
  },
  {
    "id":91,
    "name":"Farmacia del Corso",
    "wheelchair":null,
    "type":"poi",
    "coordinates":{
      "lat":45.5796365,
      "lng":9.2726404
    },
    "metadata":{
      "category":"amenity",
      "subcategory":"pharmacy"
    },
    "house_addr":null
  },
  {
    "id":92,
    "name":"Bar Milano",
    "wheelchair":null,
    "type":"poi",
    "coordinates":{
      "lat":45.5791247,
      "lng":9.2726466
    },
    "metadata":{
      "category":"amenity",
      "subcategory":"cafe"
    },
    "house_addr":null
  },
  {
    "id":93,
    "name":"Bar Riccardo",
    "wheelchair":null,
    "type":"poi",
    "coordinates":{
      "lat":45.5804191,
      "lng":9.2730936
    },
    "metadata":{
      "category":"amenity",
      "subcategory":"cafe"
    },
    "house_addr":null
  },
  {
    "id":94,
    "name":"Alcott",
    "wheelchair":"limited",
    "type":"poi",
    "coordinates":{
      "lat":45.5806342,
      "lng":9.2732167
    },
    "metadata":{
      "category":"shop",
      "subcategory":"clothes"
    },
    "house_addr":null
  },
  {
    "id":95,
    "name":"BCC di Carate Brianza",
    "wheelchair":null,
    "type":"poi",
    "coordinates":{
      "lat":45.5819663,
      "lng":9.273203
    },
    "metadata":{
      "category":"amenity",
      "subcategory":"bank"
    },
    "house_addr":null
  },
  {
    "id":96,
    "name":"Pasticceria Bona",
    "wheelchair":null,
    "type":"poi",
    "coordinates":{
      "lat":45.582143,
      "lng":9.2730525
    },
    "metadata":{
      "category":"amenity",
      "subcategory":"cafe"
    },
    "house_addr":null
  },
  {
    "id":97,
    "name":"Convento Adoratrici Perpetue del Santissimo Scramento",
    "wheelchair":null,
    "type":"poi",
    "coordinates":{
      "lat":45.5815442,
      "lng":9.2749754
    },
    "metadata":{
      "category":"amenity",
      "subcategory":"monastery"
    },
    "house_addr":null
  },
  {
    "id":98,
    "name":"BOGGI Milano",
    "wheelchair":"no",
    "type":"poi",
    "coordinates":{
      "lat":45.5821496,
      "lng":9.2740058
    },
    "metadata":{
      "category":"shop",
      "subcategory":"clothes"
    },
    "house_addr":null
  },
  {
    "id":99,
    "name":"Brian & Barry",
    "wheelchair":"limited",
    "type":"poi",
    "coordinates":{
      "lat":45.5821379,
      "lng":9.273848
    },
    "metadata":{
      "category":"shop",
      "subcategory":"clothes"
    },
    "house_addr":null
  },
  {
    "id":100,
    "name":"Agenzia delle Entrate",
    "wheelchair":null,
    "type":"poi",
    "coordinates":{
      "lat":45.5823554,
      "lng":9.2733645
    },
    "metadata":{
      "category":"office",
      "subcategory":"government"
    },
    "house_addr":null
  },
  {
    "id":101,
    "name":"OVS",
    "wheelchair":"limited",
    "type":"poi",
    "coordinates":{
      "lat":45.5827184,
      "lng":9.2736479
    },
    "metadata":{
      "category":"shop",
      "subcategory":"clothes"
    },
    "house_addr":null
  },
  {
    "id":102,
    "name":"Il Caffè della Piazza",
    "wheelchair":null,
    "type":"poi",
    "coordinates":{
      "lat":45.5831114,
      "lng":9.273836
    },
    "metadata":{
      "category":"amenity",
      "subcategory":"cafe"
    },
    "house_addr":null
  },
  {
    "id":103,
    "name":"Luisa Spagnoli",
    "wheelchair":"limited",
    "type":"poi",
    "coordinates":{
      "lat":45.5835729,
      "lng":9.2744007
    },
    "metadata":{
      "category":"shop",
      "subcategory":"clothes"
    },
    "house_addr":null
  },
  {
    "id":104,
    "name":"Libri e Libri",
    "wheelchair":null,
    "type":"poi",
    "coordinates":{
      "lat":45.5832952,
      "lng":9.2739898
    },
    "metadata":{
      "category":"shop",
      "subcategory":"books"
    },
    "house_addr":null
  },
  {
    "id":105,
    "name":"Uain",
    "wheelchair":"yes",
    "type":"poi",
    "coordinates":{
      "lat":45.5829764,
      "lng":9.2746001
    },
    "metadata":{
      "category":"amenity",
      "subcategory":"bar"
    },
    "house_addr":null
  },
  {
    "id":106,
    "name":"Giocheria",
    "wheelchair":null,
    "type":"poi",
    "coordinates":{
      "lat":45.5848423,
      "lng":9.2748239
    },
    "metadata":{
      "category":"shop",
      "subcategory":"toys"
    },
    "house_addr":null
  },
  {
    "id":107,
    "name":"Carrefour Express",
    "wheelchair":null,
    "type":"poi",
    "coordinates":{
      "lat":45.5849174,
      "lng":9.2745343
    },
    "metadata":{
      "category":"shop",
      "subcategory":"convenience"
    },
    "house_addr":null
  },
  {
    "id":108,
    "name":"Crocifisso",
    "wheelchair":"limited",
    "type":"poi",
    "coordinates":{
      "lat":45.5834344,
      "lng":9.2749339
    },
    "metadata":{
      "category":"historic",
      "subcategory":"memorial"
    },
    "house_addr":null
  },
  {
    "id":109,
    "name":"TIM",
    "wheelchair":null,
    "type":"poi",
    "coordinates":{
      "lat":45.5827288,
      "lng":9.2740905
    },
    "metadata":{
      "category":"shop",
      "subcategory":"telecommunication"
    },
    "house_addr":null
  },
  {
    "id":110,
    "name":"Libreria Duomo",
    "wheelchair":null,
    "type":"poi",
    "coordinates":{
      "lat":45.5834052,
      "lng":9.2746351
    },
    "metadata":{
      "category":"shop",
      "subcategory":"books"
    },
    "house_addr":null
  },
  {
    "id":111,
    "name":"Armonia",
    "wheelchair":null,
    "type":"poi",
    "coordinates":{
      "lat":45.5829486,
      "lng":9.2742576
    },
    "metadata":{
      "category":"shop",
      "subcategory":"pastry"
    },
    "house_addr":null
  },
  {
    "id":112,
    "name":"Stefanel",
    "wheelchair":"limited",
    "type":"poi",
    "coordinates":{
      "lat":45.5841945,
      "lng":9.2752654
    },
    "metadata":{
      "category":"shop",
      "subcategory":"clothes"
    },
    "house_addr":null
  },
  {
    "id":113,
    "name":"Caffè Vergnano",
    "wheelchair":"no",
    "type":"poi",
    "coordinates":{
      "lat":45.5840031,
      "lng":9.2751239
    },
    "metadata":{
      "category":"amenity",
      "subcategory":"cafe"
    },
    "house_addr":null
  },
  {
    "id":114,
    "name":"Lecchi",
    "wheelchair":null,
    "type":"poi",
    "coordinates":{
      "lat":45.5847596,
      "lng":9.2752091
    },
    "metadata":{
      "category":"shop",
      "subcategory":"clothes"
    },
    "house_addr":null
  },
  {
    "id":115,
    "name":"Lacoste",
    "wheelchair":null,
    "type":"poi",
    "coordinates":{
      "lat":45.5842056,
      "lng":9.2763509
    },
    "metadata":{
      "category":"shop",
      "subcategory":"clothes"
    },
    "house_addr":null
  },
  {
    "id":116,
    "name":"Bar Savoia",
    "wheelchair":null,
    "type":"poi",
    "coordinates":{
      "lat":45.5842194,
      "lng":9.276255
    },
    "metadata":{
      "category":"amenity",
      "subcategory":"cafe"
    },
    "house_addr":null
  },
  {
    "id":117,
    "name":"Musei Civici di Monza",
    "wheelchair":"yes",
    "type":"poi",
    "coordinates":{
      "lat":45.5827476,
      "lng":9.2746049
    },
    "metadata":{
      "category":"tourism",
      "subcategory":"museum"
    },
    "house_addr":null
  },
  {
    "id":118,
    "name":"Mino Parrucchiere",
    "wheelchair":null,
    "type":"poi",
    "coordinates":{
      "lat":45.5822315,
      "lng":9.2803621
    },
    "metadata":{
      "category":"shop",
      "subcategory":"hairdresser"
    },
    "house_addr":null
  },
  {
    "id":119,
    "name":"Buns",
    "wheelchair":null,
    "type":"poi",
    "coordinates":{
      "lat":45.5845699,
      "lng":9.2770853
    },
    "metadata":{
      "category":"amenity",
      "subcategory":"restaurant"
    },
    "house_addr":null
  },
  {
    "id":120,
    "name":"Garibaldi Cafè",
    "wheelchair":null,
    "type":"poi",
    "coordinates":{
      "lat":45.5846981,
      "lng":9.2770862
    },
    "metadata":{
      "category":"amenity",
      "subcategory":"bar"
    },
    "house_addr":null
  },
  {
    "id":121,
    "name":"Banca Fideuram",
    "wheelchair":null,
    "type":"poi",
    "coordinates":{
      "lat":45.5848986,
      "lng":9.277797
    },
    "metadata":{
      "category":"amenity",
      "subcategory":"bank"
    },
    "house_addr":null
  },
  {
    "id":122,
    "name":"Circolo Garibaldi",
    "wheelchair":null,
    "type":"poi",
    "coordinates":{
      "lat":45.5854947,
      "lng":9.2795421
    },
    "metadata":{
      "category":"amenity",
      "subcategory":"restaurant"
    },
    "house_addr":null
  },
  {
    "id":123,
    "name":"Farmacia Casanova",
    "wheelchair":null,
    "type":"poi",
    "coordinates":{
      "lat":45.5851028,
      "lng":9.2814563
    },
    "metadata":{
      "category":"amenity",
      "subcategory":"pharmacy"
    },
    "house_addr":null
  },
  {
    "id":124,
    "name":"Farmacia Villa",
    "wheelchair":null,
    "type":"poi",
    "coordinates":{
      "lat":45.5843741,
      "lng":9.2807289
    },
    "metadata":{
      "category":"amenity",
      "subcategory":"pharmacy"
    },
    "house_addr":null
  },
  {
    "id":125,
    "name":"Libero Milano",
    "wheelchair":"limited",
    "type":"poi",
    "coordinates":{
      "lat":45.5853991,
      "lng":9.2755646
    },
    "metadata":{
      "category":"shop",
      "subcategory":"clothes"
    },
    "house_addr":null
  },
  {
    "id":126,
    "name":"Mediobanca Premier",
    "wheelchair":null,
    "type":"poi",
    "coordinates":{
      "lat":45.5861024,
      "lng":9.2757644
    },
    "metadata":{
      "category":"amenity",
      "subcategory":"bank"
    },
    "house_addr":null
  },
  {
    "id":127,
    "name":"Clan",
    "wheelchair":"no",
    "type":"poi",
    "coordinates":{
      "lat":45.5868851,
      "lng":9.2764752
    },
    "metadata":{
      "category":"shop",
      "subcategory":"clothes"
    },
    "house_addr":null
  },
  {
    "id":128,
    "name":"hey lash",
    "wheelchair":null,
    "type":"poi",
    "coordinates":{
      "lat":45.5871946,
      "lng":9.2759666
    },
    "metadata":{
      "category":"shop",
      "subcategory":"beauty"
    },
    "house_addr":null
  },
  {
    "id":129,
    "name":"Antica Trattoria dell'Uva",
    "wheelchair":"no",
    "type":"poi",
    "coordinates":{
      "lat":45.5868965,
      "lng":9.2761625
    },
    "metadata":{
      "category":"tourism",
      "subcategory":"hotel"
    },
    "house_addr":null
  },
  {
    "id":130,
    "name":"Farmacia Manzoni",
    "wheelchair":null,
    "type":"poi",
    "coordinates":{
      "lat":45.5845639,
      "lng":9.2708514
    },
    "metadata":{
      "category":"amenity",
      "subcategory":"pharmacy"
    },
    "house_addr":null
  },
  {
    "id":131,
    "name":"Max Mara",
    "wheelchair":"yes",
    "type":"poi",
    "coordinates":{
      "lat":45.5835231,
      "lng":9.2740682
    },
    "metadata":{
      "category":"shop",
      "subcategory":"clothes"
    },
    "house_addr":null
  },
  {
    "id":132,
    "name":"Monte dei Paschi",
    "wheelchair":null,
    "type":"poi",
    "coordinates":{
      "lat":45.5829533,
      "lng":9.2733223
    },
    "metadata":{
      "category":"amenity",
      "subcategory":"bank"
    },
    "house_addr":null
  },
  {
    "id":133,
    "name":"Biblioteca dei Ragazzi",
    "wheelchair":null,
    "type":"poi",
    "coordinates":{
      "lat":45.5834025,
      "lng":9.2727579
    },
    "metadata":{
      "category":"amenity",
      "subcategory":"library"
    },
    "house_addr":null
  },
  {
    "id":134,
    "name":"Intesa Sanpaolo",
    "wheelchair":null,
    "type":"poi",
    "coordinates":{
      "lat":45.583061,
      "lng":9.272682
    },
    "metadata":{
      "category":"amenity",
      "subcategory":"bank"
    },
    "house_addr":null
  },
  {
    "id":135,
    "name":"tulip",
    "wheelchair":null,
    "type":"poi",
    "coordinates":{
      "lat":45.5844957,
      "lng":9.2728782
    },
    "metadata":{
      "category":"amenity",
      "subcategory":"bar"
    },
    "house_addr":null
  },
  {
    "id":136,
    "name":"Caffè Carducci",
    "wheelchair":null,
    "type":"poi",
    "coordinates":{
      "lat":45.5847359,
      "lng":9.272948
    },
    "metadata":{
      "category":"amenity",
      "subcategory":"cafe"
    },
    "house_addr":null
  },
  {
    "id":137,
    "name":"the Flat - cocktail bar",
    "wheelchair":null,
    "type":"poi",
    "coordinates":{
      "lat":45.5841402,
      "lng":9.2718885
    },
    "metadata":{
      "category":"amenity",
      "subcategory":"cafe"
    },
    "house_addr":null
  },
  {
    "id":138,
    "name":"Galleria Civica",
    "wheelchair":null,
    "type":"poi",
    "coordinates":{
      "lat":45.5838371,
      "lng":9.2718929
    },
    "metadata":{
      "category":"amenity",
      "subcategory":"arts_centre"
    },
    "house_addr":null
  },
  {
    "id":139,
    "name":"Madi",
    "wheelchair":null,
    "type":"poi",
    "coordinates":{
      "lat":45.584491,
      "lng":9.2716513
    },
    "metadata":{
      "category":"amenity",
      "subcategory":"cafe"
    },
    "house_addr":null
  },
  {
    "id":140,
    "name":"Simply",
    "wheelchair":null,
    "type":"poi",
    "coordinates":{
      "lat":45.5831933,
      "lng":9.2769455
    },
    "metadata":{
      "category":"shop",
      "subcategory":"clothes"
    },
    "house_addr":null
  },
  {
    "id":141,
    "name":"AmaThi",
    "wheelchair":null,
    "type":"poi",
    "coordinates":{
      "lat":45.5830604,
      "lng":9.2768598
    },
    "metadata":{
      "category":"shop",
      "subcategory":"beauty"
    },
    "house_addr":null
  },
  {
    "id":142,
    "name":"Calzedonia",
    "wheelchair":"no",
    "type":"poi",
    "coordinates":{
      "lat":45.5829864,
      "lng":9.2740101
    },
    "metadata":{
      "category":"shop",
      "subcategory":"clothes"
    },
    "house_addr":null
  },
  {
    "id":143,
    "name":"Yamamay",
    "wheelchair":"no",
    "type":"poi",
    "coordinates":{
      "lat":45.5830701,
      "lng":9.2740344
    },
    "metadata":{
      "category":"shop",
      "subcategory":"clothes"
    },
    "house_addr":null
  },
  {
    "id":144,
    "name":"Intimissimi",
    "wheelchair":"limited",
    "type":"poi",
    "coordinates":{
      "lat":45.5835946,
      "lng":9.2741118
    },
    "metadata":{
      "category":"shop",
      "subcategory":"clothes"
    },
    "house_addr":null
  },
  {
    "id":145,
    "name":"Enoteca Meregalli",
    "wheelchair":"no",
    "type":"poi",
    "coordinates":{
      "lat":45.5831264,
      "lng":9.2740465
    },
    "metadata":{
      "category":"shop",
      "subcategory":"wine"
    },
    "house_addr":null
  },
  {
    "id":146,
    "name":"Marco Monza",
    "wheelchair":"no",
    "type":"poi",
    "coordinates":{
      "lat":45.5818354,
      "lng":9.2739925
    },
    "metadata":{
      "category":"shop",
      "subcategory":"clothes"
    },
    "house_addr":null
  },
  {
    "id":147,
    "name":"La Romana",
    "wheelchair":null,
    "type":"poi",
    "coordinates":{
      "lat":45.5851465,
      "lng":9.2753564
    },
    "metadata":{
      "category":"amenity",
      "subcategory":"ice_cream"
    },
    "house_addr":null
  },
  {
    "id":148,
    "name":"Giada Beauty Center",
    "wheelchair":null,
    "type":"poi",
    "coordinates":{
      "lat":45.5830149,
      "lng":9.2747568
    },
    "metadata":{
      "category":"shop",
      "subcategory":"beauty"
    },
    "house_addr":null
  },
  {
    "id":149,
    "name":"Solo Pelle",
    "wheelchair":null,
    "type":"poi",
    "coordinates":{
      "lat":45.5830301,
      "lng":9.274391
    },
    "metadata":{
      "category":"shop",
      "subcategory":"bag"
    },
    "house_addr":null
  },
  {
    "id":150,
    "name":"Varallo Gioielli",
    "wheelchair":null,
    "type":"poi",
    "coordinates":{
      "lat":45.5829435,
      "lng":9.2743389
    },
    "metadata":{
      "category":"shop",
      "subcategory":"jewelry"
    },
    "house_addr":null
  },
  {
    "id":151,
    "name":"Caffè Zucchi",
    "wheelchair":null,
    "type":"poi",
    "coordinates":{
      "lat":45.5858176,
      "lng":9.2741044
    },
    "metadata":{
      "category":"amenity",
      "subcategory":"cafe"
    },
    "house_addr":null
  },
  {
    "id":152,
    "name":"Banco di Desio",
    "wheelchair":null,
    "type":"poi",
    "coordinates":{
      "lat":45.5855852,
      "lng":9.2740523
    },
    "metadata":{
      "category":"amenity",
      "subcategory":"bank"
    },
    "house_addr":null
  },
  {
    "id":153,
    "name":"Rosy",
    "wheelchair":null,
    "type":"poi",
    "coordinates":{
      "lat":45.5857297,
      "lng":9.2735316
    },
    "metadata":{
      "category":"shop",
      "subcategory":"beauty"
    },
    "house_addr":null
  },
  {
    "id":154,
    "name":"Crédit Agricole",
    "wheelchair":null,
    "type":"poi",
    "coordinates":{
      "lat":45.5859384,
      "lng":9.2741435
    },
    "metadata":{
      "category":"amenity",
      "subcategory":"bank"
    },
    "house_addr":null
  },
  {
    "id":155,
    "name":"Lievito",
    "wheelchair":null,
    "type":"poi",
    "coordinates":{
      "lat":45.5859498,
      "lng":9.2734498
    },
    "metadata":{
      "category":"shop",
      "subcategory":"pastry"
    },
    "house_addr":null
  },
  {
    "id":156,
    "name":"Caffè del Borgo",
    "wheelchair":null,
    "type":"poi",
    "coordinates":{
      "lat":45.5851716,
      "lng":9.2743719
    },
    "metadata":{
      "category":"amenity",
      "subcategory":"cafe"
    },
    "house_addr":null
  },
  {
    "id":157,
    "name":"Centrale Carni",
    "wheelchair":null,
    "type":"poi",
    "coordinates":{
      "lat":45.5852633,
      "lng":9.2743778
    },
    "metadata":{
      "category":"shop",
      "subcategory":"butcher"
    },
    "house_addr":null
  },
  {
    "id":158,
    "name":"Museo Talamoni",
    "wheelchair":null,
    "type":"poi",
    "coordinates":{
      "lat":45.583479,
      "lng":9.2797274
    },
    "metadata":{
      "category":"tourism",
      "subcategory":"museum"
    },
    "house_addr":null
  },
  {
    "id":159,
    "name":"Pironi Calzature",
    "wheelchair":"limited",
    "type":"poi",
    "coordinates":{
      "lat":45.5838123,
      "lng":9.2792714
    },
    "metadata":{
      "category":"shop",
      "subcategory":"shoes"
    },
    "house_addr":null
  },
  {
    "id":160,
    "name":"Ponte dei Leoni",
    "wheelchair":"limited",
    "type":"poi",
    "coordinates":{
      "lat":45.5839749,
      "lng":9.2777996
    },
    "metadata":{
      "category":"shop",
      "subcategory":"hairdresser"
    },
    "house_addr":null
  },
  {
    "id":161,
    "name":"Ottica Barzaghi",
    "wheelchair":null,
    "type":"poi",
    "coordinates":{
      "lat":45.5839686,
      "lng":9.2778647
    },
    "metadata":{
      "category":"shop",
      "subcategory":"optician"
    },
    "house_addr":null
  },
  {
    "id":162,
    "name":"Zero16",
    "wheelchair":null,
    "type":"poi",
    "coordinates":{
      "lat":45.5839549,
      "lng":9.2779331
    },
    "metadata":{
      "category":"shop",
      "subcategory":"baby_goods"
    },
    "house_addr":null
  },
  {
    "id":163,
    "name":"Caffè del Ponte",
    "wheelchair":null,
    "type":"poi",
    "coordinates":{
      "lat":45.5838947,
      "lng":9.2787634
    },
    "metadata":{
      "category":"amenity",
      "subcategory":"cafe"
    },
    "house_addr":null
  },
  {
    "id":164,
    "name":"La dispensa alpina",
    "wheelchair":"limited",
    "type":"poi",
    "coordinates":{
      "lat":45.5840274,
      "lng":9.2787448
    },
    "metadata":{
      "category":"shop",
      "subcategory":"deli"
    },
    "house_addr":null
  },
  {
    "id":165,
    "name":"Woody",
    "wheelchair":null,
    "type":"poi",
    "coordinates":{
      "lat":45.5841425,
      "lng":9.2795466
    },
    "metadata":{
      "category":"amenity",
      "subcategory":"pub"
    },
    "house_addr":null
  },
  {
    "id":166,
    "name":"Pescheria fish and wine",
    "wheelchair":null,
    "type":"poi",
    "coordinates":{
      "lat":45.5842662,
      "lng":9.2797715
    },
    "metadata":{
      "category":"shop",
      "subcategory":"seafood"
    },
    "house_addr":null
  },
  {
    "id":167,
    "name":"Leoni",
    "wheelchair":"limited",
    "type":"poi",
    "coordinates":{
      "lat":45.5837634,
      "lng":9.2795061
    },
    "metadata":{
      "category":"amenity",
      "subcategory":"ice_cream"
    },
    "house_addr":null
  },
  {
    "id":168,
    "name":"Primigi",
    "wheelchair":null,
    "type":"poi",
    "coordinates":{
      "lat":45.5836267,
      "lng":9.2794768
    },
    "metadata":{
      "category":"shop",
      "subcategory":"shoes"
    },
    "house_addr":null
  },
  {
    "id":169,
    "name":"Sara B Home",
    "wheelchair":null,
    "type":"poi",
    "coordinates":{
      "lat":45.5846759,
      "lng":9.2803287
    },
    "metadata":{
      "category":"shop",
      "subcategory":"houseware"
    },
    "house_addr":null
  },
  {
    "id":170,
    "name":"Novia",
    "wheelchair":null,
    "type":"poi",
    "coordinates":{
      "lat":45.5851675,
      "lng":9.2808576
    },
    "metadata":{
      "category":"shop",
      "subcategory":"clothes"
    },
    "house_addr":null
  },
  {
    "id":171,
    "name":"Sapone del Mugello",
    "wheelchair":null,
    "type":"poi",
    "coordinates":{
      "lat":45.5850902,
      "lng":9.2815741
    },
    "metadata":{
      "category":"shop",
      "subcategory":"chemist"
    },
    "house_addr":null
  },
  {
    "id":172,
    "name":"Caffè Portici",
    "wheelchair":null,
    "type":"poi",
    "coordinates":{
      "lat":45.5845878,
      "lng":9.2819758
    },
    "metadata":{
      "category":"amenity",
      "subcategory":"cafe"
    },
    "house_addr":null
  },
  {
    "id":173,
    "name":"Miles Café",
    "wheelchair":null,
    "type":"poi",
    "coordinates":{
      "lat":45.5842913,
      "lng":9.2806629
    },
    "metadata":{
      "category":"amenity",
      "subcategory":"bar"
    },
    "house_addr":null
  },
  {
    "id":174,
    "name":"Il Forno di Francesco",
    "wheelchair":null,
    "type":"poi",
    "coordinates":{
      "lat":45.5842275,
      "lng":9.2808062
    },
    "metadata":{
      "category":"shop",
      "subcategory":"bakery"
    },
    "house_addr":null
  },
  {
    "id":175,
    "name":"Silvano Fashion Hair",
    "wheelchair":null,
    "type":"poi",
    "coordinates":{
      "lat":45.5849461,
      "lng":9.2817056
    },
    "metadata":{
      "category":"shop",
      "subcategory":"hairdresser"
    },
    "house_addr":null
  },
  {
    "id":176,
    "name":"Barbecue Hooligans",
    "wheelchair":null,
    "type":"poi",
    "coordinates":{
      "lat":45.5841963,
      "lng":9.2809189
    },
    "metadata":{
      "category":"amenity",
      "subcategory":"fast_food"
    },
    "house_addr":null
  },
  {
    "id":177,
    "name":"Clars",
    "wheelchair":null,
    "type":"poi",
    "coordinates":{
      "lat":45.584013,
      "lng":9.2822549
    },
    "metadata":{
      "category":"amenity",
      "subcategory":"restaurant"
    },
    "house_addr":null
  },
  {
    "id":178,
    "name":"Tempor",
    "wheelchair":null,
    "type":"poi",
    "coordinates":{
      "lat":45.5841734,
      "lng":9.2812956
    },
    "metadata":{
      "category":"office",
      "subcategory":"employment_agency"
    },
    "house_addr":null
  },
  {
    "id":179,
    "name":"Pak Doner Kebab",
    "wheelchair":null,
    "type":"poi",
    "coordinates":{
      "lat":45.5842646,
      "lng":9.2810131
    },
    "metadata":{
      "category":"amenity",
      "subcategory":"fast_food"
    },
    "house_addr":null
  },
  {
    "id":180,
    "name":"San Giacomo Maggiore",
    "wheelchair":null,
    "type":"poi",
    "coordinates":{
      "lat":45.5842737,
      "lng":9.2820488
    },
    "metadata":{
      "category":"historic",
      "subcategory":"memorial"
    },
    "house_addr":null
  },
  {
    "id":181,
    "name":"Massimo",
    "wheelchair":null,
    "type":"poi",
    "coordinates":{
      "lat":45.5844059,
      "lng":9.2823451
    },
    "metadata":{
      "category":"shop",
      "subcategory":"hairdresser"
    },
    "house_addr":null
  },
  {
    "id":182,
    "name":"El Supremo",
    "wheelchair":null,
    "type":"poi",
    "coordinates":{
      "lat":45.5839479,
      "lng":9.2823981
    },
    "metadata":{
      "category":"amenity",
      "subcategory":"fast_food"
    },
    "house_addr":null
  },
  {
    "id":183,
    "name":"Cool",
    "wheelchair":null,
    "type":"poi",
    "coordinates":{
      "lat":45.5840468,
      "lng":9.2785194
    },
    "metadata":{
      "category":"amenity",
      "subcategory":"ice_cream"
    },
    "house_addr":null
  },
  {
    "id":184,
    "name":"Findomestic",
    "wheelchair":null,
    "type":"poi",
    "coordinates":{
      "lat":45.5798437,
      "lng":9.2731587
    },
    "metadata":{
      "category":"amenity",
      "subcategory":"bank"
    },
    "house_addr":null
  },
  {
    "id":185,
    "name":"Universo Moda",
    "wheelchair":null,
    "type":"poi",
    "coordinates":{
      "lat":45.5798901,
      "lng":9.2727655
    },
    "metadata":{
      "category":"shop",
      "subcategory":"clothes"
    },
    "house_addr":null
  },
  {
    "id":186,
    "name":"Zia Maria",
    "wheelchair":null,
    "type":"poi",
    "coordinates":{
      "lat":45.5794352,
      "lng":9.2728502
    },
    "metadata":{
      "category":"shop",
      "subcategory":"cannabis"
    },
    "house_addr":null
  },
  {
    "id":187,
    "name":"A. Palma",
    "wheelchair":null,
    "type":"poi",
    "coordinates":{
      "lat":45.5803168,
      "lng":9.2730747
    },
    "metadata":{
      "category":"shop",
      "subcategory":"jewelry"
    },
    "house_addr":null
  },
  {
    "id":188,
    "name":"Galatasaray",
    "wheelchair":null,
    "type":"poi",
    "coordinates":{
      "lat":45.5804764,
      "lng":9.2730269
    },
    "metadata":{
      "category":"amenity",
      "subcategory":"fast_food"
    },
    "house_addr":null
  },
  {
    "id":189,
    "name":"Fratelli Carli",
    "wheelchair":null,
    "type":"poi",
    "coordinates":{
      "lat":45.5808304,
      "lng":9.2733702
    },
    "metadata":{
      "category":"shop",
      "subcategory":"health_food"
    },
    "house_addr":null
  },
  {
    "id":190,
    "name":"Perc e co.",
    "wheelchair":null,
    "type":"poi",
    "coordinates":{
      "lat":45.5809082,
      "lng":9.2734059
    },
    "metadata":{
      "category":"shop",
      "subcategory":"clothes"
    },
    "house_addr":null
  },
  {
    "id":191,
    "name":"Doppelgänger",
    "wheelchair":null,
    "type":"poi",
    "coordinates":{
      "lat":45.5809751,
      "lng":9.2734366
    },
    "metadata":{
      "category":"shop",
      "subcategory":"clothes"
    },
    "house_addr":null
  },
  {
    "id":192,
    "name":"Fastweb",
    "wheelchair":null,
    "type":"poi",
    "coordinates":{
      "lat":45.581093,
      "lng":9.273794
    },
    "metadata":{
      "category":"shop",
      "subcategory":"telecommunication"
    },
    "house_addr":null
  },
  {
    "id":193,
    "name":"Dev",
    "wheelchair":null,
    "type":"poi",
    "coordinates":{
      "lat":45.5812113,
      "lng":9.2738503
    },
    "metadata":{
      "category":"shop",
      "subcategory":"clothes"
    },
    "house_addr":null
  },
  {
    "id":194,
    "name":"GrandVision",
    "wheelchair":"yes",
    "type":"poi",
    "coordinates":{
      "lat":45.5811702,
      "lng":9.273542
    },
    "metadata":{
      "category":"shop",
      "subcategory":"optician"
    },
    "house_addr":null
  },
  {
    "id":195,
    "name":"Ottica Morini",
    "wheelchair":null,
    "type":"poi",
    "coordinates":{
      "lat":45.5812419,
      "lng":9.2735765
    },
    "metadata":{
      "category":"shop",
      "subcategory":"optician"
    },
    "house_addr":null
  },
  {
    "id":196,
    "name":"Mendino",
    "wheelchair":null,
    "type":"poi",
    "coordinates":{
      "lat":45.5813131,
      "lng":9.2736101
    },
    "metadata":{
      "category":"shop",
      "subcategory":"bag"
    },
    "house_addr":null
  },
  {
    "id":197,
    "name":"Biarritz cashmere",
    "wheelchair":null,
    "type":"poi",
    "coordinates":{
      "lat":45.5813968,
      "lng":9.2736563
    },
    "metadata":{
      "category":"shop",
      "subcategory":"clothes"
    },
    "house_addr":null
  },
  {
    "id":198,
    "name":"Dixie",
    "wheelchair":null,
    "type":"poi",
    "coordinates":{
      "lat":45.5814786,
      "lng":9.2736961
    },
    "metadata":{
      "category":"shop",
      "subcategory":"clothes"
    },
    "house_addr":null
  },
  {
    "id":199,
    "name":"Gioielleria Canali",
    "wheelchair":null,
    "type":"poi",
    "coordinates":{
      "lat":45.5816287,
      "lng":9.2737525
    },
    "metadata":{
      "category":"shop",
      "subcategory":"jewelry"
    },
    "house_addr":null
  },
  {
    "id":200,
    "name":"Naracamicie",
    "wheelchair":null,
    "type":"poi",
    "coordinates":{
      "lat":45.5813262,
      "lng":9.2738988
    },
    "metadata":{
      "category":"shop",
      "subcategory":"clothes"
    },
    "house_addr":null
  },
  {
    "id":201,
    "name":"twinset",
    "wheelchair":null,
    "type":"poi",
    "coordinates":{
      "lat":45.5813849,
      "lng":9.2739231
    },
    "metadata":{
      "category":"shop",
      "subcategory":"clothes"
    },
    "house_addr":null
  },
  {
    "id":202,
    "name":"Blue Star Gioielli",
    "wheelchair":null,
    "type":"poi",
    "coordinates":{
      "lat":45.5814406,
      "lng":9.2739407
    },
    "metadata":{
      "category":"shop",
      "subcategory":"jewelry"
    },
    "house_addr":null
  },
  {
    "id":203,
    "name":"Wind Tre",
    "wheelchair":null,
    "type":"poi",
    "coordinates":{
      "lat":45.581504,
      "lng":9.2739584
    },
    "metadata":{
      "category":"shop",
      "subcategory":"telecommunication"
    },
    "house_addr":null
  },
  {
    "id":204,
    "name":"fcode",
    "wheelchair":"no",
    "type":"poi",
    "coordinates":{
      "lat":45.5815787,
      "lng":9.2739797
    },
    "metadata":{
      "category":"shop",
      "subcategory":"clothes"
    },
    "house_addr":null
  },
  {
    "id":205,
    "name":"Furla",
    "wheelchair":null,
    "type":"poi",
    "coordinates":{
      "lat":45.5816215,
      "lng":9.2739938
    },
    "metadata":{
      "category":"shop",
      "subcategory":"bag"
    },
    "house_addr":null
  },
  {
    "id":206,
    "name":"dm",
    "wheelchair":"yes",
    "type":"poi",
    "coordinates":{
      "lat":45.5818534,
      "lng":9.2738281
    },
    "metadata":{
      "category":"shop",
      "subcategory":"chemist"
    },
    "house_addr":null
  },
  {
    "id":207,
    "name":"Andrew's Ties",
    "wheelchair":"no",
    "type":"poi",
    "coordinates":{
      "lat":45.5819297,
      "lng":9.2739889
    },
    "metadata":{
      "category":"shop",
      "subcategory":"clothes"
    },
    "house_addr":null
  },
  {
    "id":208,
    "name":"Angels",
    "wheelchair":"no",
    "type":"poi",
    "coordinates":{
      "lat":45.582044,
      "lng":9.2739934
    },
    "metadata":{
      "category":"shop",
      "subcategory":"clothes"
    },
    "house_addr":null
  },
  {
    "id":209,
    "name":"Yves Rocher",
    "wheelchair":"no",
    "type":"poi",
    "coordinates":{
      "lat":45.5822214,
      "lng":9.2740014
    },
    "metadata":{
      "category":"shop",
      "subcategory":"beauty"
    },
    "house_addr":null
  },
  {
    "id":210,
    "name":"Carnelli",
    "wheelchair":null,
    "type":"poi",
    "coordinates":{
      "lat":45.5822693,
      "lng":9.2738546
    },
    "metadata":{
      "category":"shop",
      "subcategory":"clothes"
    },
    "house_addr":null
  },
  {
    "id":211,
    "name":"Pratum Magnum",
    "wheelchair":null,
    "type":"poi",
    "coordinates":{
      "lat":45.5836828,
      "lng":9.2740456
    },
    "metadata":{
      "category":"amenity",
      "subcategory":"cafe"
    },
    "house_addr":null
  },
  {
    "id":212,
    "name":"Bijou Brigitte",
    "wheelchair":null,
    "type":"poi",
    "coordinates":{
      "lat":45.5827629,
      "lng":9.2741074
    },
    "metadata":{
      "category":"shop",
      "subcategory":"jewelry"
    },
    "house_addr":null
  },
  {
    "id":213,
    "name":"Falconeri",
    "wheelchair":"no",
    "type":"poi",
    "coordinates":{
      "lat":45.5826776,
      "lng":9.2740624
    },
    "metadata":{
      "category":"shop",
      "subcategory":"clothes"
    },
    "house_addr":null
  },
  {
    "id":214,
    "name":"PUPA Milano",
    "wheelchair":"limited",
    "type":"poi",
    "coordinates":{
      "lat":45.582488,
      "lng":9.274018
    },
    "metadata":{
      "category":"shop",
      "subcategory":"cosmetics"
    },
    "house_addr":null
  },
  {
    "id":215,
    "name":"Elena Mirò",
    "wheelchair":"yes",
    "type":"poi",
    "coordinates":{
      "lat":45.5825964,
      "lng":9.2740487
    },
    "metadata":{
      "category":"shop",
      "subcategory":"clothes"
    },
    "house_addr":null
  },
  {
    "id":216,
    "name":"Il dolce cortile",
    "wheelchair":null,
    "type":"poi",
    "coordinates":{
      "lat":45.5826187,
      "lng":9.2741307
    },
    "metadata":{
      "category":"shop",
      "subcategory":"pastry"
    },
    "house_addr":null
  },
  {
    "id":217,
    "name":"Dan John",
    "wheelchair":"no",
    "type":"poi",
    "coordinates":{
      "lat":45.5829867,
      "lng":9.2741639
    },
    "metadata":{
      "category":"shop",
      "subcategory":"clothes"
    },
    "house_addr":null
  },
  {
    "id":218,
    "name":"La Casa dei Formaggi",
    "wheelchair":null,
    "type":"poi",
    "coordinates":{
      "lat":45.5831026,
      "lng":9.2741837
    },
    "metadata":{
      "category":"shop",
      "subcategory":"convenience"
    },
    "house_addr":null
  },
  {
    "id":219,
    "name":"Andros",
    "wheelchair":"no",
    "type":"poi",
    "coordinates":{
      "lat":45.5832072,
      "lng":9.2742011
    },
    "metadata":{
      "category":"shop",
      "subcategory":"clothes"
    },
    "house_addr":null
  },
  {
    "id":220,
    "name":"Moreal",
    "wheelchair":"no",
    "type":"poi",
    "coordinates":{
      "lat":45.5833125,
      "lng":9.2742062
    },
    "metadata":{
      "category":"shop",
      "subcategory":"clothes"
    },
    "house_addr":null
  },
  {
    "id":221,
    "name":"Marina Rinaldi",
    "wheelchair":null,
    "type":"poi",
    "coordinates":{
      "lat":45.5834242,
      "lng":9.2742611
    },
    "metadata":{
      "category":"shop",
      "subcategory":"clothes"
    },
    "house_addr":null
  },
  {
    "id":222,
    "name":"MAX&Co.",
    "wheelchair":null,
    "type":"poi",
    "coordinates":{
      "lat":45.5835031,
      "lng":9.2743163
    },
    "metadata":{
      "category":"shop",
      "subcategory":"clothes"
    },
    "house_addr":null
  },
  {
    "id":223,
    "name":"Candy world",
    "wheelchair":null,
    "type":"poi",
    "coordinates":{
      "lat":45.583623,
      "lng":9.2742063
    },
    "metadata":{
      "category":"shop",
      "subcategory":"confectionery"
    },
    "house_addr":null
  },
  {
    "id":224,
    "name":"Geox",
    "wheelchair":"no",
    "type":"poi",
    "coordinates":{
      "lat":45.5839963,
      "lng":9.2746287
    },
    "metadata":{
      "category":"shop",
      "subcategory":"shoes"
    },
    "house_addr":null
  },
  {
    "id":225,
    "name":"Goldenpoint",
    "wheelchair":"no",
    "type":"poi",
    "coordinates":{
      "lat":45.5840413,
      "lng":9.2746823
    },
    "metadata":{
      "category":"shop",
      "subcategory":"clothes"
    },
    "house_addr":null
  },
  {
    "id":226,
    "name":"KIKO Milano",
    "wheelchair":"limited",
    "type":"poi",
    "coordinates":{
      "lat":45.5841582,
      "lng":9.2750735
    },
    "metadata":{
      "category":"shop",
      "subcategory":"cosmetics"
    },
    "house_addr":null
  },
  {
    "id":227,
    "name":"Pandora",
    "wheelchair":"no",
    "type":"poi",
    "coordinates":{
      "lat":45.5837375,
      "lng":9.2745412
    },
    "metadata":{
      "category":"shop",
      "subcategory":"jewelry"
    },
    "house_addr":null
  },
  {
    "id":228,
    "name":"Gioielleria Samarcanda",
    "wheelchair":null,
    "type":"poi",
    "coordinates":{
      "lat":45.5837891,
      "lng":9.2745978
    },
    "metadata":{
      "category":"shop",
      "subcategory":"jewelry"
    },
    "house_addr":null
  },
  {
    "id":229,
    "name":"Barzaghi",
    "wheelchair":"no",
    "type":"poi",
    "coordinates":{
      "lat":45.583832,
      "lng":9.2746463
    },
    "metadata":{
      "category":"shop",
      "subcategory":"optician"
    },
    "house_addr":null
  },
  {
    "id":230,
    "name":"Intimissimi Uomo",
    "wheelchair":null,
    "type":"poi",
    "coordinates":{
      "lat":45.584054,
      "lng":9.2749019
    },
    "metadata":{
      "category":"shop",
      "subcategory":"clothes"
    },
    "house_addr":null
  },
  {
    "id":231,
    "name":"Nespresso",
    "wheelchair":"no",
    "type":"poi",
    "coordinates":{
      "lat":45.5838777,
      "lng":9.2747211
    },
    "metadata":{
      "category":"shop",
      "subcategory":"coffee"
    },
    "house_addr":null
  },
  {
    "id":232,
    "name":"Bottega verde",
    "wheelchair":"no",
    "type":"poi",
    "coordinates":{
      "lat":45.5844211,
      "lng":9.2756095
    },
    "metadata":{
      "category":"shop",
      "subcategory":"herbalist"
    },
    "house_addr":null
  },
  {
    "id":233,
    "name":"Gallo",
    "wheelchair":"no",
    "type":"poi",
    "coordinates":{
      "lat":45.5844133,
      "lng":9.2756879
    },
    "metadata":{
      "category":"shop",
      "subcategory":"clothes"
    },
    "house_addr":null
  },
  {
    "id":234,
    "name":"Erboristeria Estragon",
    "wheelchair":null,
    "type":"poi",
    "coordinates":{
      "lat":45.5844009,
      "lng":9.275773
    },
    "metadata":{
      "category":"shop",
      "subcategory":"herbalist"
    },
    "house_addr":null
  },
  {
    "id":235,
    "name":"WS Group",
    "wheelchair":null,
    "type":"poi",
    "coordinates":{
      "lat":45.584384,
      "lng":9.2759395
    },
    "metadata":{
      "category":"office",
      "subcategory":"estate_agent"
    },
    "house_addr":null
  },
  {
    "id":236,
    "name":"Goloso siciliano",
    "wheelchair":null,
    "type":"poi",
    "coordinates":{
      "lat":45.583931,
      "lng":9.2772541
    },
    "metadata":{
      "category":"shop",
      "subcategory":"confectionery"
    },
    "house_addr":null
  },
  {
    "id":237,
    "name":"Daniel & Mayer",
    "wheelchair":null,
    "type":"poi",
    "coordinates":{
      "lat":45.584245,
      "lng":9.276021
    },
    "metadata":{
      "category":"shop",
      "subcategory":"clothes"
    },
    "house_addr":null
  },
  {
    "id":238,
    "name":"L'Erbolario",
    "wheelchair":null,
    "type":"poi",
    "coordinates":{
      "lat":45.584232,
      "lng":9.2761509
    },
    "metadata":{
      "category":"shop",
      "subcategory":"herbalist"
    },
    "house_addr":null
  },
  {
    "id":239,
    "name":"Il Laccio",
    "wheelchair":null,
    "type":"poi",
    "coordinates":{
      "lat":45.5842147,
      "lng":9.276301
    },
    "metadata":{
      "category":"shop",
      "subcategory":"shoes"
    },
    "house_addr":null
  },
  {
    "id":240,
    "name":"Mariani Gioielli",
    "wheelchair":null,
    "type":"poi",
    "coordinates":{
      "lat":45.5841985,
      "lng":9.2764103
    },
    "metadata":{
      "category":"shop",
      "subcategory":"jewelry"
    },
    "house_addr":null
  },
  {
    "id":241,
    "name":"La Dea",
    "wheelchair":null,
    "type":"poi",
    "coordinates":{
      "lat":45.5841892,
      "lng":9.2764854
    },
    "metadata":{
      "category":"shop",
      "subcategory":"clothes"
    },
    "house_addr":null
  },
  {
    "id":242,
    "name":"Pinalli",
    "wheelchair":null,
    "type":"poi",
    "coordinates":{
      "lat":45.584183,
      "lng":9.2765759
    },
    "metadata":{
      "category":"shop",
      "subcategory":"perfumery"
    },
    "house_addr":null
  },
  {
    "id":243,
    "name":"Soldout Milano",
    "wheelchair":null,
    "type":"poi",
    "coordinates":{
      "lat":45.5841707,
      "lng":9.2766533
    },
    "metadata":{
      "category":"shop",
      "subcategory":"clothes"
    },
    "house_addr":null
  },
  {
    "id":244,
    "name":"RomAntica",
    "wheelchair":null,
    "type":"poi",
    "coordinates":{
      "lat":45.5841629,
      "lng":9.2767328
    },
    "metadata":{
      "category":"amenity",
      "subcategory":"fast_food"
    },
    "house_addr":null
  },
  {
    "id":245,
    "name":"Sergent Major",
    "wheelchair":"limited",
    "type":"poi",
    "coordinates":{
      "lat":45.5841467,
      "lng":9.2768334
    },
    "metadata":{
      "category":"shop",
      "subcategory":"clothes"
    },
    "house_addr":null
  },
  {
    "id":246,
    "name":"Timberland",
    "wheelchair":"no",
    "type":"poi",
    "coordinates":{
      "lat":45.584125,
      "lng":9.2769703
    },
    "metadata":{
      "category":"shop",
      "subcategory":"shoes"
    },
    "house_addr":null
  },
  {
    "id":247,
    "name":"Stelio",
    "wheelchair":null,
    "type":"poi",
    "coordinates":{
      "lat":45.5841065,
      "lng":9.2770918
    },
    "metadata":{
      "category":"shop",
      "subcategory":"clothes"
    },
    "house_addr":null
  },
  {
    "id":248,
    "name":"Gardi Gioielli",
    "wheelchair":null,
    "type":"poi",
    "coordinates":{
      "lat":45.5840848,
      "lng":9.2772818
    },
    "metadata":{
      "category":"shop",
      "subcategory":"jewelry"
    },
    "house_addr":null
  },
  {
    "id":249,
    "name":"Liu Jo",
    "wheelchair":null,
    "type":"poi",
    "coordinates":{
      "lat":45.5843111,
      "lng":9.2765985
    },
    "metadata":{
      "category":"shop",
      "subcategory":"clothes"
    },
    "house_addr":null
  },
  {
    "id":250,
    "name":"Original Marines",
    "wheelchair":"no",
    "type":"poi",
    "coordinates":{
      "lat":45.5842831,
      "lng":9.2767034
    },
    "metadata":{
      "category":"shop",
      "subcategory":"clothes"
    },
    "house_addr":null
  },
  {
    "id":251,
    "name":"Jacadi",
    "wheelchair":"no",
    "type":"poi",
    "coordinates":{
      "lat":45.5842622,
      "lng":9.276833
    },
    "metadata":{
      "category":"shop",
      "subcategory":"clothes"
    },
    "house_addr":null
  },
  {
    "id":252,
    "name":"Pam Local",
    "wheelchair":null,
    "type":"poi",
    "coordinates":{
      "lat":45.5810404,
      "lng":9.2737699
    },
    "metadata":{
      "category":"shop",
      "subcategory":"convenience"
    },
    "house_addr":null
  },
  {
    "id":253,
    "name":"Burgez Monza",
    "wheelchair":null,
    "type":"poi",
    "coordinates":{
      "lat":45.579574,
      "lng":9.2729447
    },
    "metadata":{
      "category":"amenity",
      "subcategory":"fast_food"
    },
    "house_addr":null
  },
  {
    "id":254,
    "name":"Max factory",
    "wheelchair":"limited",
    "type":"poi",
    "coordinates":{
      "lat":45.580911,
      "lng":9.2737041
    },
    "metadata":{
      "category":"shop",
      "subcategory":"clothes"
    },
    "house_addr":null
  },
  {
    "id":255,
    "name":"Locanda San Paolo",
    "wheelchair":null,
    "type":"poi",
    "coordinates":{
      "lat":45.5854676,
      "lng":9.2740248
    },
    "metadata":{
      "category":"tourism",
      "subcategory":"hotel"
    },
    "house_addr":null
  },
  {
    "id":256,
    "name":"Monumento a Vittorio Emanuele II",
    "wheelchair":null,
    "type":"poi",
    "coordinates":{
      "lat":45.5884351,
      "lng":9.275708
    },
    "metadata":{
      "category":"historic",
      "subcategory":"memorial"
    },
    "house_addr":null
  },
  {
    "id":257,
    "name":"Demetra Studio Medico",
    "wheelchair":null,
    "type":"poi",
    "coordinates":{
      "lat":45.5839574,
      "lng":9.2771334
    },
    "metadata":{
      "category":"amenity",
      "subcategory":"doctors"
    },
    "house_addr":null
  },
  {
    "id":258,
    "name":"Ago Agitato Tattoo",
    "wheelchair":null,
    "type":"poi",
    "coordinates":{
      "lat":45.5828686,
      "lng":9.2762519
    },
    "metadata":{
      "category":"shop",
      "subcategory":"tattoo"
    },
    "house_addr":null
  },
  {
    "id":259,
    "name":"Starcopying",
    "wheelchair":null,
    "type":"poi",
    "coordinates":{
      "lat":45.5846069,
      "lng":9.2767239
    },
    "metadata":{
      "category":"shop",
      "subcategory":"copyshop"
    },
    "house_addr":null
  },
  {
    "id":260,
    "name":"Isabella Flower Design",
    "wheelchair":null,
    "type":"poi",
    "coordinates":{
      "lat":45.5828386,
      "lng":9.2763914
    },
    "metadata":{
      "category":"shop",
      "subcategory":"florist"
    },
    "house_addr":null
  },
  {
    "id":261,
    "name":"Cantina dei Sapori",
    "wheelchair":null,
    "type":"poi",
    "coordinates":{
      "lat":45.5839994,
      "lng":9.2766779
    },
    "metadata":{
      "category":"amenity",
      "subcategory":"bar"
    },
    "house_addr":null
  },
  {
    "id":262,
    "name":"Norggatan",
    "wheelchair":null,
    "type":"poi",
    "coordinates":{
      "lat":45.5839236,
      "lng":9.2767561
    },
    "metadata":{
      "category":"shop",
      "subcategory":"clothes"
    },
    "house_addr":null
  },
  {
    "id":263,
    "name":"L'Orto del Centro",
    "wheelchair":null,
    "type":"poi",
    "coordinates":{
      "lat":45.5823374,
      "lng":9.2766006
    },
    "metadata":{
      "category":"shop",
      "subcategory":"greengrocer"
    },
    "house_addr":null
  },
  {
    "id":264,
    "name":"Surya Namaskar Madre Terra",
    "wheelchair":null,
    "type":"poi",
    "coordinates":{
      "lat":45.5839995,
      "lng":9.2762312
    },
    "metadata":{
      "category":"shop",
      "subcategory":"variety_store"
    },
    "house_addr":null
  },
  {
    "id":265,
    "name":"La cantina della monaca",
    "wheelchair":null,
    "type":"poi",
    "coordinates":{
      "lat":45.5840221,
      "lng":9.2759807
    },
    "metadata":{
      "category":"amenity",
      "subcategory":"restaurant"
    },
    "house_addr":null
  },
  {
    "id":266,
    "name":"Ok Oro",
    "wheelchair":null,
    "type":"poi",
    "coordinates":{
      "lat":45.5830076,
      "lng":9.2749805
    },
    "metadata":{
      "category":"shop",
      "subcategory":"jewelry"
    },
    "house_addr":null
  },
  {
    "id":267,
    "name":"Saint",
    "wheelchair":null,
    "type":"poi",
    "coordinates":{
      "lat":45.5835294,
      "lng":9.2746882
    },
    "metadata":{
      "category":"amenity",
      "subcategory":"bar"
    },
    "house_addr":null
  },
  {
    "id":268,
    "name":"Cotton Club",
    "wheelchair":null,
    "type":"poi",
    "coordinates":{
      "lat":45.5839181,
      "lng":9.2753346
    },
    "metadata":{
      "category":"shop",
      "subcategory":"clothes"
    },
    "house_addr":null
  },
  {
    "id":269,
    "name":"OmegaFish",
    "wheelchair":null,
    "type":"poi",
    "coordinates":{
      "lat":45.582639,
      "lng":9.2747132
    },
    "metadata":{
      "category":"amenity",
      "subcategory":"restaurant"
    },
    "house_addr":null
  },
  {
    "id":270,
    "name":"Tearose Cafè",
    "wheelchair":null,
    "type":"poi",
    "coordinates":{
      "lat":45.5836364,
      "lng":9.2748249
    },
    "metadata":{
      "category":"amenity",
      "subcategory":"cafe"
    },
    "house_addr":null
  },
  {
    "id":271,
    "name":"Salotto Teodolinda",
    "wheelchair":null,
    "type":"poi",
    "coordinates":{
      "lat":45.5827473,
      "lng":9.274774
    },
    "metadata":{
      "category":"shop",
      "subcategory":"clothes"
    },
    "house_addr":null
  },
  {
    "id":272,
    "name":"Handicraft",
    "wheelchair":null,
    "type":"poi",
    "coordinates":{
      "lat":45.5830806,
      "lng":9.2745194
    },
    "metadata":{
      "category":"shop",
      "subcategory":"carpet"
    },
    "house_addr":null
  },
  {
    "id":273,
    "name":"Gori e Benassi",
    "wheelchair":null,
    "type":"poi",
    "coordinates":{
      "lat":45.5839998,
      "lng":9.2764732
    },
    "metadata":{
      "category":"shop",
      "subcategory":"hairdresser"
    },
    "house_addr":null
  },
  {
    "id":274,
    "name":"Nuovo Istituto Alessandro Manzoni",
    "wheelchair":null,
    "type":"poi",
    "coordinates":{
      "lat":45.5851445,
      "lng":9.2766032
    },
    "metadata":{
      "category":"amenity",
      "subcategory":"school"
    },
    "house_addr":null
  },
  {
    "id":275,
    "name":"Mariano",
    "wheelchair":null,
    "type":"poi",
    "coordinates":{
      "lat":45.5824334,
      "lng":9.2746361
    },
    "metadata":{
      "category":"shop",
      "subcategory":"fabric"
    },
    "house_addr":null
  },
  {
    "id":276,
    "name":"Il Pizzicagnolo",
    "wheelchair":null,
    "type":"poi",
    "coordinates":{
      "lat":45.5845301,
      "lng":9.2760324
    },
    "metadata":{
      "category":"shop",
      "subcategory":"deli"
    },
    "house_addr":null
  },
  {
    "id":277,
    "name":"Luxury Class",
    "wheelchair":null,
    "type":"poi",
    "coordinates":{
      "lat":45.5850425,
      "lng":9.2754719
    },
    "metadata":{
      "category":"shop",
      "subcategory":"gift"
    },
    "house_addr":null
  },
  {
    "id":278,
    "name":"Pini Geremia",
    "wheelchair":null,
    "type":"poi",
    "coordinates":{
      "lat":45.5847028,
      "lng":9.2764166
    },
    "metadata":{
      "category":"shop",
      "subcategory":"frame"
    },
    "house_addr":null
  },
  {
    "id":279,
    "name":"Rolex",
    "wheelchair":null,
    "type":"poi",
    "coordinates":{
      "lat":45.5848322,
      "lng":9.2754419
    },
    "metadata":{
      "category":"shop",
      "subcategory":"watches"
    },
    "house_addr":null
  },
  {
    "id":280,
    "name":"Il Fornaio Golosone",
    "wheelchair":null,
    "type":"poi",
    "coordinates":{
      "lat":45.5846971,
      "lng":9.2758174
    },
    "metadata":{
      "category":"shop",
      "subcategory":"bakery"
    },
    "house_addr":null
  },
  {
    "id":281,
    "name":"Civico 7",
    "wheelchair":null,
    "type":"poi",
    "coordinates":{
      "lat":45.5850735,
      "lng":9.2753354
    },
    "metadata":{
      "category":"shop",
      "subcategory":"clothes"
    },
    "house_addr":null
  },
  {
    "id":282,
    "name":"Salmoiraghi & Viganò",
    "wheelchair":null,
    "type":"poi",
    "coordinates":{
      "lat":45.5853128,
      "lng":9.2753909
    },
    "metadata":{
      "category":"shop",
      "subcategory":"optician"
    },
    "house_addr":null
  },
  {
    "id":283,
    "name":"Outlet",
    "wheelchair":null,
    "type":"poi",
    "coordinates":{
      "lat":45.5854741,
      "lng":9.2754284
    },
    "metadata":{
      "category":"shop",
      "subcategory":"clothes"
    },
    "house_addr":null
  },
  {
    "id":284,
    "name":"NAU!",
    "wheelchair":"no",
    "type":"poi",
    "coordinates":{
      "lat":45.5848978,
      "lng":9.2754445
    },
    "metadata":{
      "category":"shop",
      "subcategory":"optician"
    },
    "house_addr":null
  },
  {
    "id":285,
    "name":"Il Fornaio dell'Arengario",
    "wheelchair":null,
    "type":"poi",
    "coordinates":{
      "lat":45.5851056,
      "lng":9.2753462
    },
    "metadata":{
      "category":"shop",
      "subcategory":"bakery"
    },
    "house_addr":null
  },
  {
    "id":286,
    "name":"Vampe",
    "wheelchair":"limited",
    "type":"poi",
    "coordinates":{
      "lat":45.5848547,
      "lng":9.2752624
    },
    "metadata":{
      "category":"shop",
      "subcategory":"household"
    },
    "house_addr":null
  },
  {
    "id":287,
    "name":"Bar Dam",
    "wheelchair":null,
    "type":"poi",
    "coordinates":{
      "lat":45.5846971,
      "lng":9.2754016
    },
    "metadata":{
      "category":"amenity",
      "subcategory":"cafe"
    },
    "house_addr":null
  },
  {
    "id":288,
    "name":"Lego",
    "wheelchair":null,
    "type":"poi",
    "coordinates":{
      "lat":45.5851818,
      "lng":9.2755108
    },
    "metadata":{
      "category":"shop",
      "subcategory":"toys"
    },
    "house_addr":null
  },
  {
    "id":289,
    "name":"Albergo Ristorante Fantello",
    "wheelchair":null,
    "type":"poi",
    "coordinates":{
      "lat":45.5847683,
      "lng":9.2758364
    },
    "metadata":{
      "category":"tourism",
      "subcategory":"hotel"
    },
    "house_addr":null
  },
  {
    "id":290,
    "name":"Amplifon",
    "wheelchair":null,
    "type":"poi",
    "coordinates":{
      "lat":45.5872331,
      "lng":9.2761821
    },
    "metadata":{
      "category":"shop",
      "subcategory":"hearing_aids"
    },
    "house_addr":null
  },
  {
    "id":291,
    "name":"Ronchi Gioielli",
    "wheelchair":"no",
    "type":"poi",
    "coordinates":{
      "lat":45.5849917,
      "lng":9.2753026
    },
    "metadata":{
      "category":"shop",
      "subcategory":"jewelry"
    },
    "house_addr":null
  },
  {
    "id":292,
    "name":"Italian Style",
    "wheelchair":null,
    "type":"poi",
    "coordinates":{
      "lat":45.584452,
      "lng":9.2760002
    },
    "metadata":{
      "category":"shop",
      "subcategory":"hairdresser"
    },
    "house_addr":null
  },
  {
    "id":293,
    "name":"Nenette",
    "wheelchair":null,
    "type":"poi",
    "coordinates":{
      "lat":45.5854629,
      "lng":9.2755894
    },
    "metadata":{
      "category":"shop",
      "subcategory":"clothes"
    },
    "house_addr":null
  },
  {
    "id":294,
    "name":"Francesco Messina",
    "wheelchair":"no",
    "type":"poi",
    "coordinates":{
      "lat":45.5849749,
      "lng":9.2754579
    },
    "metadata":{
      "category":"shop",
      "subcategory":"hairdresser"
    },
    "house_addr":null
  },
  {
    "id":295,
    "name":"La Cafeteria",
    "wheelchair":null,
    "type":"poi",
    "coordinates":{
      "lat":45.5850396,
      "lng":9.2753174
    },
    "metadata":{
      "category":"amenity",
      "subcategory":"cafe"
    },
    "house_addr":null
  },
  {
    "id":296,
    "name":"Petit Bateau",
    "wheelchair":"limited",
    "type":"poi",
    "coordinates":{
      "lat":45.5849241,
      "lng":9.2752758
    },
    "metadata":{
      "category":"shop",
      "subcategory":"clothes"
    },
    "house_addr":null
  },
  {
    "id":297,
    "name":"Libreria dell'Arengario",
    "wheelchair":null,
    "type":"poi",
    "coordinates":{
      "lat":45.5847199,
      "lng":9.2755794
    },
    "metadata":{
      "category":"shop",
      "subcategory":"books"
    },
    "house_addr":null
  },
  {
    "id":298,
    "name":"Gattinoni Travel Network",
    "wheelchair":"no",
    "type":"poi",
    "coordinates":{
      "lat":45.5853747,
      "lng":9.2754097
    },
    "metadata":{
      "category":"shop",
      "subcategory":"travel_agency"
    },
    "house_addr":null
  },
  {
    "id":299,
    "name":"Fun Slot",
    "wheelchair":null,
    "type":"poi",
    "coordinates":{
      "lat":45.5846689,
      "lng":9.2760749
    },
    "metadata":{
      "category":"amenity",
      "subcategory":"gambling"
    },
    "house_addr":null
  },
  {
    "id":300,
    "name":"Pozzilei",
    "wheelchair":"no",
    "type":"poi",
    "coordinates":{
      "lat":45.5859289,
      "lng":9.2755505
    },
    "metadata":{
      "category":"shop",
      "subcategory":"bag"
    },
    "house_addr":null
  },
  {
    "id":301,
    "name":"Punti e fantasia",
    "wheelchair":null,
    "type":"poi",
    "coordinates":{
      "lat":45.5864148,
      "lng":9.2758213
    },
    "metadata":{
      "category":"shop",
      "subcategory":"gift"
    },
    "house_addr":null
  },
  {
    "id":302,
    "name":"AlaVida",
    "wheelchair":null,
    "type":"poi",
    "coordinates":{
      "lat":45.5859982,
      "lng":9.2755693
    },
    "metadata":{
      "category":"shop",
      "subcategory":"clothes"
    },
    "house_addr":null
  },
  {
    "id":303,
    "name":"Meroni",
    "wheelchair":"no",
    "type":"poi",
    "coordinates":{
      "lat":45.5860613,
      "lng":9.2755927
    },
    "metadata":{
      "category":"shop",
      "subcategory":"perfumery"
    },
    "house_addr":null
  },
  {
    "id":304,
    "name":"Igino Massari",
    "wheelchair":null,
    "type":"poi",
    "coordinates":{
      "lat":45.5859945,
      "lng":9.27569
    },
    "metadata":{
      "category":"shop",
      "subcategory":"pastry"
    },
    "house_addr":null
  },
  {
    "id":305,
    "name":"Area Platinum",
    "wheelchair":"limited",
    "type":"poi",
    "coordinates":{
      "lat":45.5856949,
      "lng":9.2755111
    },
    "metadata":{
      "category":"office",
      "subcategory":"estate_agent"
    },
    "house_addr":null
  },
  {
    "id":306,
    "name":"Madame Sicò",
    "wheelchair":"no",
    "type":"poi",
    "coordinates":{
      "lat":45.5857671,
      "lng":9.2755319
    },
    "metadata":{
      "category":"shop",
      "subcategory":"jewelry"
    },
    "house_addr":null
  },
  {
    "id":307,
    "name":"La Boutique dei Sapori",
    "wheelchair":"no",
    "type":"poi",
    "coordinates":{
      "lat":45.5858121,
      "lng":9.2755006
    },
    "metadata":{
      "category":"shop",
      "subcategory":"deli"
    },
    "house_addr":null
  },
  {
    "id":308,
    "name":"Centemero Gioielli",
    "wheelchair":"no",
    "type":"poi",
    "coordinates":{
      "lat":45.5856225,
      "lng":9.2754951
    },
    "metadata":{
      "category":"shop",
      "subcategory":"jewelry"
    },
    "house_addr":null
  },
  {
    "id":309,
    "name":"Paolo Pessina",
    "wheelchair":"no",
    "type":"poi",
    "coordinates":{
      "lat":45.5856524,
      "lng":9.2756392
    },
    "metadata":{
      "category":"shop",
      "subcategory":"clothes"
    },
    "house_addr":null
  },
  {
    "id":310,
    "name":"Valleverde",
    "wheelchair":"no",
    "type":"poi",
    "coordinates":{
      "lat":45.585563,
      "lng":9.2754701
    },
    "metadata":{
      "category":"shop",
      "subcategory":"shoes"
    },
    "house_addr":null
  },
  {
    "id":311,
    "name":"Remida Tornaghi",
    "wheelchair":null,
    "type":"poi",
    "coordinates":{
      "lat":45.5858612,
      "lng":9.2756685
    },
    "metadata":{
      "category":"shop",
      "subcategory":"jewelry"
    },
    "house_addr":null
  },
  {
    "id":312,
    "name":"Ops",
    "wheelchair":null,
    "type":"poi",
    "coordinates":{
      "lat":45.5866646,
      "lng":9.2758026
    },
    "metadata":{
      "category":"shop",
      "subcategory":"bag"
    },
    "house_addr":null
  },
  {
    "id":313,
    "name":"Fenice",
    "wheelchair":null,
    "type":"poi",
    "coordinates":{
      "lat":45.5867247,
      "lng":9.2758348
    },
    "metadata":{
      "category":"amenity",
      "subcategory":"bar"
    },
    "house_addr":null
  },
  {
    "id":314,
    "name":"Caprotti Luce",
    "wheelchair":null,
    "type":"poi",
    "coordinates":{
      "lat":45.587712,
      "lng":9.2759635
    },
    "metadata":{
      "category":"shop",
      "subcategory":"lighting"
    },
    "house_addr":null
  },
  {
    "id":315,
    "name":"Clinica iPhone",
    "wheelchair":null,
    "type":"poi",
    "coordinates":{
      "lat":45.5875074,
      "lng":9.2758884
    },
    "metadata":{
      "category":"craft",
      "subcategory":"electronics_repair"
    },
    "house_addr":null
  },
  {
    "id":316,
    "name":"Tirelli Due",
    "wheelchair":null,
    "type":"poi",
    "coordinates":{
      "lat":45.5868001,
      "lng":9.2758783
    },
    "metadata":{
      "category":"shop",
      "subcategory":"clothes"
    },
    "house_addr":null
  },
  {
    "id":317,
    "name":"Martino Midali",
    "wheelchair":"no",
    "type":"poi",
    "coordinates":{
      "lat":45.5866038,
      "lng":9.275914
    },
    "metadata":{
      "category":"shop",
      "subcategory":"clothes"
    },
    "house_addr":null
  },
  {
    "id":318,
    "name":"Immobiliare i90",
    "wheelchair":null,
    "type":"poi",
    "coordinates":{
      "lat":45.5873592,
      "lng":9.2761003
    },
    "metadata":{
      "category":"office",
      "subcategory":"estate_agent"
    },
    "house_addr":null
  },
  {
    "id":319,
    "name":"Gabetti",
    "wheelchair":"yes",
    "type":"poi",
    "coordinates":{
      "lat":45.5868646,
      "lng":9.2760214
    },
    "metadata":{
      "category":"office",
      "subcategory":"estate_agent"
    },
    "house_addr":null
  },
  {
    "id":320,
    "name":"Città del sole",
    "wheelchair":"no",
    "type":"poi",
    "coordinates":{
      "lat":45.5870626,
      "lng":9.275985
    },
    "metadata":{
      "category":"shop",
      "subcategory":"toys"
    },
    "house_addr":null
  },
  {
    "id":321,
    "name":"Castignoli",
    "wheelchair":null,
    "type":"poi",
    "coordinates":{
      "lat":45.5869034,
      "lng":9.275933
    },
    "metadata":{
      "category":"shop",
      "subcategory":"jewelry"
    },
    "house_addr":null
  },
  {
    "id":322,
    "name":"B.",
    "wheelchair":null,
    "type":"poi",
    "coordinates":{
      "lat":45.5865164,
      "lng":9.2757221
    },
    "metadata":{
      "category":"amenity",
      "subcategory":"cafe"
    },
    "house_addr":null
  },
  {
    "id":323,
    "name":"Ottico Rivolta",
    "wheelchair":null,
    "type":"poi",
    "coordinates":{
      "lat":45.5869799,
      "lng":9.2759508
    },
    "metadata":{
      "category":"shop",
      "subcategory":"optician"
    },
    "house_addr":null
  },
  {
    "id":324,
    "name":"Il Giardino Segreto",
    "wheelchair":null,
    "type":"poi",
    "coordinates":{
      "lat":45.5875507,
      "lng":9.2760145
    },
    "metadata":{
      "category":"amenity",
      "subcategory":"kindergarten"
    },
    "house_addr":null
  },
  {
    "id":325,
    "name":"Amerigo",
    "wheelchair":null,
    "type":"poi",
    "coordinates":{
      "lat":45.5869334,
      "lng":9.2759483
    },
    "metadata":{
      "category":"shop",
      "subcategory":"gift"
    },
    "house_addr":null
  },
  {
    "id":326,
    "name":"Double B",
    "wheelchair":null,
    "type":"poi",
    "coordinates":{
      "lat":45.5807998,
      "lng":9.2736386
    },
    "metadata":{
      "category":"shop",
      "subcategory":"clothes"
    },
    "house_addr":null
  },
  {
    "id":327,
    "name":"Monza Payitaht Istanbul Kebab&Pizza",
    "wheelchair":null,
    "type":"poi",
    "coordinates":{
      "lat":45.58007,
      "lng":9.272922
    },
    "metadata":{
      "category":"amenity",
      "subcategory":"fast_food"
    },
    "house_addr":null
  },
  {
    "id":328,
    "name":"Aimely lashes & brows",
    "wheelchair":null,
    "type":"poi",
    "coordinates":{
      "lat":45.5802363,
      "lng":9.2730353
    },
    "metadata":{
      "category":"shop",
      "subcategory":"clothes"
    },
    "house_addr":null
  },
  {
    "id":329,
    "name":"Upim",
    "wheelchair":null,
    "type":"poi",
    "coordinates":{
      "lat":45.5807542,
      "lng":9.2736772
    },
    "metadata":{
      "category":"shop",
      "subcategory":"department_store"
    },
    "house_addr":null
  },
  {
    "id":330,
    "name":"Sala del Regno dei Testimoni di Geova - congregazione Monza sud",
    "wheelchair":null,
    "type":"poi",
    "coordinates":{
      "lat":45.577513,
      "lng":9.2765376
    },
    "metadata":{
      "category":"amenity",
      "subcategory":"place_of_worship"
    },
    "house_addr":null
  },
  {
    "id":331,
    "name":"Sardicicli",
    "wheelchair":null,
    "type":"poi",
    "coordinates":{
      "lat":45.5893582,
      "lng":9.2823219
    },
    "metadata":{
      "category":"shop",
      "subcategory":"bicycle"
    },
    "house_addr":null
  },
  {
    "id":332,
    "name":"Spontini",
    "wheelchair":null,
    "type":"poi",
    "coordinates":{
      "lat":45.5829043,
      "lng":9.2736142
    },
    "metadata":{
      "category":"amenity",
      "subcategory":"fast_food"
    },
    "house_addr":null
  },
  {
    "id":333,
    "name":"Scuola di Musica di Silvia Corrieri",
    "wheelchair":null,
    "type":"poi",
    "coordinates":{
      "lat":45.5838223,
      "lng":9.2773263
    },
    "metadata":{
      "category":"amenity",
      "subcategory":"music_school"
    },
    "house_addr":null
  },
  {
    "id":334,
    "name":"Dada",
    "wheelchair":null,
    "type":"poi",
    "coordinates":{
      "lat":45.5811547,
      "lng":9.2722517
    },
    "metadata":{
      "category":"shop",
      "subcategory":"furniture"
    },
    "house_addr":null
  },
  {
    "id":335,
    "name":"UniCredit Bank",
    "wheelchair":null,
    "type":"poi",
    "coordinates":{
      "lat":45.5821423,
      "lng":9.271624
    },
    "metadata":{
      "category":"amenity",
      "subcategory":"bank"
    },
    "house_addr":null
  },
  {
    "id":336,
    "name":"Lloyd Adriatico",
    "wheelchair":null,
    "type":"poi",
    "coordinates":{
      "lat":45.5826036,
      "lng":9.2715064
    },
    "metadata":{
      "category":"office",
      "subcategory":"insurance"
    },
    "house_addr":null
  },
  {
    "id":337,
    "name":"Caffè & Caffè",
    "wheelchair":"yes",
    "type":"poi",
    "coordinates":{
      "lat":45.5823413,
      "lng":9.2736083
    },
    "metadata":{
      "category":"amenity",
      "subcategory":"cafe"
    },
    "house_addr":null
  },
  {
    "id":338,
    "name":"Colorificio Manzoni",
    "wheelchair":null,
    "type":"poi",
    "coordinates":{
      "lat":45.5810984,
      "lng":9.2723106
    },
    "metadata":{
      "category":"shop",
      "subcategory":"paint"
    },
    "house_addr":null
  },
  {
    "id":339,
    "name":"Toscano",
    "wheelchair":null,
    "type":"poi",
    "coordinates":{
      "lat":45.5821677,
      "lng":9.2719677
    },
    "metadata":{
      "category":"office",
      "subcategory":"estate_agent"
    },
    "house_addr":null
  },
  {
    "id":340,
    "name":"Toro Assicurazioni",
    "wheelchair":null,
    "type":"poi",
    "coordinates":{
      "lat":45.582587,
      "lng":9.2719157
    },
    "metadata":{
      "category":"office",
      "subcategory":"insurance"
    },
    "house_addr":null
  },
  {
    "id":341,
    "name":"Panino Giusto",
    "wheelchair":null,
    "type":"poi",
    "coordinates":{
      "lat":45.5823461,
      "lng":9.2723804
    },
    "metadata":{
      "category":"amenity",
      "subcategory":"fast_food"
    },
    "house_addr":null
  },
  {
    "id":342,
    "name":"Materassi & materassi",
    "wheelchair":null,
    "type":"poi",
    "coordinates":{
      "lat":45.5820156,
      "lng":9.2720396
    },
    "metadata":{
      "category":"shop",
      "subcategory":"bed"
    },
    "house_addr":null
  },
  {
    "id":343,
    "name":"Planning Ingegneria Impiantistica",
    "wheelchair":null,
    "type":"poi",
    "coordinates":{
      "lat":45.5812372,
      "lng":9.2764263
    },
    "metadata":{
      "category":"office",
      "subcategory":"engineering"
    },
    "house_addr":null
  },
  {
    "id":344,
    "name":"Ria Money Transfer",
    "wheelchair":null,
    "type":"poi",
    "coordinates":{
      "lat":45.577166,
      "lng":9.2723254
    },
    "metadata":{
      "category":"amenity",
      "subcategory":"money_transfer"
    },
    "house_addr":null
  },
  {
    "id":345,
    "name":"ACI",
    "wheelchair":null,
    "type":"poi",
    "coordinates":{
      "lat":45.5770817,
      "lng":9.2709269
    },
    "metadata":{
      "category":"office",
      "subcategory":"government"
    },
    "house_addr":null
  },
  {
    "id":346,
    "name":"PD Monza e Brianza",
    "wheelchair":null,
    "type":"poi",
    "coordinates":{
      "lat":45.5766445,
      "lng":9.2720491
    },
    "metadata":{
      "category":"office",
      "subcategory":"political_party"
    },
    "house_addr":null
  },
  {
    "id":347,
    "name":"BPER Banca",
    "wheelchair":null,
    "type":"poi",
    "coordinates":{
      "lat":45.5778612,
      "lng":9.271803
    },
    "metadata":{
      "category":"amenity",
      "subcategory":"bank"
    },
    "house_addr":null
  },
  {
    "id":348,
    "name":"Banca di Asti",
    "wheelchair":null,
    "type":"poi",
    "coordinates":{
      "lat":45.5782882,
      "lng":9.2715868
    },
    "metadata":{
      "category":"amenity",
      "subcategory":"bank"
    },
    "house_addr":null
  },
  {
    "id":349,
    "name":"Pulsazione",
    "wheelchair":null,
    "type":"poi",
    "coordinates":{
      "lat":45.5782654,
      "lng":9.2710573
    },
    "metadata":{
      "category":"shop",
      "subcategory":"beauty"
    },
    "house_addr":null
  },
  {
    "id":350,
    "name":"Royal",
    "wheelchair":null,
    "type":"poi",
    "coordinates":{
      "lat":45.5781943,
      "lng":9.2712494
    },
    "metadata":{
      "category":"office",
      "subcategory":"estate_agent"
    },
    "house_addr":null
  },
  {
    "id":351,
    "name":"Gioielleria Scaccabarozzi",
    "wheelchair":null,
    "type":"poi",
    "coordinates":{
      "lat":45.5774341,
      "lng":9.2711469
    },
    "metadata":{
      "category":"shop",
      "subcategory":"jewelry"
    },
    "house_addr":null
  },
  {
    "id":352,
    "name":"IBL banca",
    "wheelchair":null,
    "type":"poi",
    "coordinates":{
      "lat":45.5769571,
      "lng":9.2708438
    },
    "metadata":{
      "category":"amenity",
      "subcategory":"bank"
    },
    "house_addr":null
  },
  {
    "id":353,
    "name":"Centro Operativo di Monza - ACLI Milano servizi fiscali",
    "wheelchair":null,
    "type":"poi",
    "coordinates":{
      "lat":45.5780705,
      "lng":9.2723593
    },
    "metadata":{
      "category":"office",
      "subcategory":"accountant"
    },
    "house_addr":null
  },
  {
    "id":354,
    "name":"Zhong Xing",
    "wheelchair":null,
    "type":"poi",
    "coordinates":{
      "lat":45.5773157,
      "lng":9.2710638
    },
    "metadata":{
      "category":"amenity",
      "subcategory":"restaurant"
    },
    "house_addr":null
  },
  {
    "id":355,
    "name":"Sartoria Lele",
    "wheelchair":null,
    "type":"poi",
    "coordinates":{
      "lat":45.5783315,
      "lng":9.2708878
    },
    "metadata":{
      "category":"craft",
      "subcategory":"dressmaker"
    },
    "house_addr":null
  },
  {
    "id":356,
    "name":"Franco e Franco",
    "wheelchair":null,
    "type":"poi",
    "coordinates":{
      "lat":45.5781536,
      "lng":9.2713694
    },
    "metadata":{
      "category":"shop",
      "subcategory":"clothes"
    },
    "house_addr":null
  },
  {
    "id":357,
    "name":"Bar Rosalia",
    "wheelchair":null,
    "type":"poi",
    "coordinates":{
      "lat":45.5776293,
      "lng":9.2716555
    },
    "metadata":{
      "category":"amenity",
      "subcategory":"cafe"
    },
    "house_addr":null
  },
  {
    "id":358,
    "name":"Edilizia Acrobatica",
    "wheelchair":null,
    "type":"poi",
    "coordinates":{
      "lat":45.5780705,
      "lng":9.2715734
    },
    "metadata":{
      "category":"office",
      "subcategory":"company"
    },
    "house_addr":null
  },
  {
    "id":359,
    "name":"Autosilo Corso Milano",
    "wheelchair":null,
    "type":"poi",
    "coordinates":{
      "lat":45.57801,
      "lng":9.2702891
    },
    "metadata":{
      "category":"amenity",
      "subcategory":"parking_entrance"
    },
    "house_addr":null
  },
  {
    "id":360,
    "name":"Spazio Danza",
    "wheelchair":null,
    "type":"poi",
    "coordinates":{
      "lat":45.577158,
      "lng":9.2709833
    },
    "metadata":{
      "category":"leisure",
      "subcategory":"dance"
    },
    "house_addr":null
  },
  {
    "id":361,
    "name":"Shopping Club",
    "wheelchair":null,
    "type":"poi",
    "coordinates":{
      "lat":45.5783521,
      "lng":9.2713508
    },
    "metadata":{
      "category":"shop",
      "subcategory":"clothes"
    },
    "house_addr":null
  },
  {
    "id":362,
    "name":"Il Cafferino",
    "wheelchair":null,
    "type":"poi",
    "coordinates":{
      "lat":45.5780005,
      "lng":9.2715491
    },
    "metadata":{
      "category":"amenity",
      "subcategory":"cafe"
    },
    "house_addr":null
  },
  {
    "id":363,
    "name":"Motosalone",
    "wheelchair":null,
    "type":"poi",
    "coordinates":{
      "lat":45.5793881,
      "lng":9.2702593
    },
    "metadata":{
      "category":"shop",
      "subcategory":"motorcycle"
    },
    "house_addr":null
  },
  {
    "id":364,
    "name":"Visionottica Indipendenza",
    "wheelchair":"yes",
    "type":"poi",
    "coordinates":{
      "lat":45.5788101,
      "lng":9.270125
    },
    "metadata":{
      "category":"shop",
      "subcategory":"optician"
    },
    "house_addr":null
  },
  {
    "id":365,
    "name":"Bar Piazzetta",
    "wheelchair":"limited",
    "type":"poi",
    "coordinates":{
      "lat":45.5789753,
      "lng":9.270007
    },
    "metadata":{
      "category":"amenity",
      "subcategory":"cafe"
    },
    "house_addr":null
  },
  {
    "id":366,
    "name":"Just B",
    "wheelchair":"limited",
    "type":"poi",
    "coordinates":{
      "lat":45.5787069,
      "lng":9.2695751
    },
    "metadata":{
      "category":"shop",
      "subcategory":"hairdresser"
    },
    "house_addr":null
  },
  {
    "id":367,
    "name":"Pani e Tulipani",
    "wheelchair":"limited",
    "type":"poi",
    "coordinates":{
      "lat":45.5787257,
      "lng":9.2701116
    },
    "metadata":{
      "category":"shop",
      "subcategory":"bakery"
    },
    "house_addr":null
  },
  {
    "id":368,
    "name":"Sovrana",
    "wheelchair":null,
    "type":"poi",
    "coordinates":{
      "lat":45.5784097,
      "lng":9.2706422
    },
    "metadata":{
      "category":"shop",
      "subcategory":"jewelry"
    },
    "house_addr":null
  },
  {
    "id":369,
    "name":"Muse Nails Salon",
    "wheelchair":null,
    "type":"poi",
    "coordinates":{
      "lat":45.5785538,
      "lng":9.2701411
    },
    "metadata":{
      "category":"shop",
      "subcategory":"beauty"
    },
    "house_addr":null
  },
  {
    "id":370,
    "name":"La Fontana",
    "wheelchair":null,
    "type":"poi",
    "coordinates":{
      "lat":45.5785793,
      "lng":9.2700472
    },
    "metadata":{
      "category":"amenity",
      "subcategory":"restaurant"
    },
    "house_addr":null
  },
  {
    "id":371,
    "name":"Fratelli Scardua",
    "wheelchair":null,
    "type":"poi",
    "coordinates":{
      "lat":45.5784568,
      "lng":9.270449
    },
    "metadata":{
      "category":"shop",
      "subcategory":"electronics"
    },
    "house_addr":null
  },
  {
    "id":372,
    "name":"Wineline",
    "wheelchair":null,
    "type":"poi",
    "coordinates":{
      "lat":45.5794828,
      "lng":9.2703016
    },
    "metadata":{
      "category":"amenity",
      "subcategory":"restaurant"
    },
    "house_addr":null
  },
  {
    "id":373,
    "name":"Bonetti Arreda",
    "wheelchair":null,
    "type":"poi",
    "coordinates":{
      "lat":45.5784985,
      "lng":9.2703235
    },
    "metadata":{
      "category":"shop",
      "subcategory":"furniture"
    },